Name,Country,Region,Winery,Rating,NumberOfRatings,Price,Year,lat,lng,Spring_tavg,Spring_tmin,Spring_tmax,Spring_prcp,Spring_tsun,Summer_tavg,Summer_tmin,Summer_tmax,Summer_prcp,Summer_tsun,Fall_tavg,Fall_tmin,Fall_tmax,Fall_prcp,Fall_tsun
Mad Méditerranée Rosé 2019,France,Méditerranée,Château Camparnaud,4.0,25,10.11,2019,43.6487851,2.3435684,10.436798413594564,6.861406723658244,14.396997451782227,6.602795441945394,28440.051432291668,20.116474787394207,15.145851135253906,25.113520940144856,2.796272317568461,41615.04296875,13.636117299397787,10.098449548085531,17.658825556437176,3.4981003403663635,27850.805338541668
Redoma Rosé 2019,Portugal,Douro,Niepoort,3.9,25,12.81,2019,41.135684,-7.1166743,13.57977326711019,8.475238164265951,18.86663595835368,3.1922223567962646,33208.882161458336,24.075598398844402,17.525668462117512,30.95772870381673,1.0370251149094354,44951.703125,17.778826395670574,12.393338680267334,23.75357151031494,1.8493190109729767,31785.779296875
Fantini Cerasuolo d'Abruzzo 2019,Italy,Abruzzo,Farnese,3.6,25,5.6,2019,42.227681,13.854983,10.602023760477701,6.36189591884613,15.209601720174154,4.013333280881246,32523.526041666668,19.73992156982422,14.832558949788412,24.75845464070638,1.7109677195549011,46513.973958333336,12.760869344075521,8.998509248097736,17.234744707743328,4.005555470784505,28022.918619791668
La Villa Rosé 2018,France,Languedoc,Château La Sauvageonne,4.6,25,68.95,2018,43.6796869,1.3966515,13.542388916015625,8.288139661153158,19.145344416300457,2.790035843849182,35105.281901041664,22.47248077392578,17.608444849650066,27.81518300374349,1.809283177057902,37921.236979166664,13.687856356302897,9.449430465698242,18.574663480122883,1.1632616718610127,26909.650390625
La Rosé de Manincor 2019,Italy,Vigneti delle Dolomiti,Manincor,4.1,25,17.5,2019,46.38333,11.85,1.7228922843933105,-2.4880948464075723,5.984198955198129,4.241147041320801,31333.794921875,11.634391784667969,6.371457099914551,16.471134503682453,4.925197045008342,42138.182291666664,4.619968473911286,0.256170133749644,9.244091510772705,4.814802885055542,26525.716796875
Mea Rosa 2019,Italy,Liguria,Lvnae,3.9,25,11.45,2019,44.4777617,8.7026296,9.87078332901001,6.718842148780823,13.388716538747152,5.832724094390869,32017.445963541668,20.158288319905598,16.75231870015462,23.75620714823405,2.494982043902079,44460.006510416664,12.572118441263834,9.84178113937378,15.982157071431478,7.762043396631877,27945.031901041668
Amethystos Rosé 2013,Greece,Drama,Costa Lazaridi,3.8,25,9.7,2013,41.1499443,24.1468286,14.390631675720215,8.667675495147705,19.107103029886883,2.0585662126541138,37476.3984375,27.10009002685547,20.826744715372723,31.796170552571613,0.23272400597731271,47394.475260416664,17.819776217142742,12.81864325205485,22.218142827351887,2.1467742224534354,31980.858723958332
Cinsault 2019,France,Pays d'Oc,Les Jamelles,3.6,26,5.56,2019,43.604764,1.4540399,12.48267904917399,8.268017768859863,17.020436604817707,3.188566287358602,30752.929036458332,22.576364517211914,16.94946797688802,28.004109700520832,1.5693190097808838,42478.255208333336,15.601071039835611,11.203662872314453,20.54557991027832,1.9136560211579006,29236.901041666668
Rosé 2019,South Africa,Paarl,Backsberg,3.5,26,6.45,2019,-33.7310282,18.9642117,18.437167485555012,12.973738034566244,25.15791384379069,1.89426522453626,32703.397135416668,12.311761220296225,7.357089678446452,17.873111089070637,3.1312904357910156,27279.024739583332,17.287007013956707,10.96646245320638,24.354185740152996,1.1061648428440096,39750.044921875
Rosa 2019,Austria,Burgenland,Umathum,3.9,26,9.91,2019,47.5000001,16.4166666,11.367276589075724,7.309473117192586,15.597160498301188,2.28863795598348,33879.134114583336,21.033786137898762,17.03841495513916,25.17065493265788,2.36831533908844,42804.670572916664,12.195910771687826,9.258774280548094,15.841480255126953,2.3058064778645835,25311.174153645832
Primer Rosé 2018,Spain,Rioja,Marqués de Murrieta,3.9,26,25.15,2018,42.3285528,-2.4674917,10.798688570658365,5.430378119150798,16.707546552022297,2.0327240228652954,37035.34375,18.887142181396484,13.461686452229818,25.38217035929362,1.9408960739771526,39642.9765625,11.33245054880778,7.236829837163289,16.273496945699055,1.49433700243632,28008.844401041668
Réserve Côtes du Rhône Rosé 2018,France,Côtes-du-Rhône,Famille Perrin,3.6,26,8.9,2018,44.7667285,4.8528701,13.079588890075684,7.814863681793213,18.50912920633952,2.4182079235712686,37828.087239583336,23.95379892985026,17.96004295349121,30.08688799540202,1.192078948020935,45363.81640625,13.199190457661947,8.663931687672934,18.22253481547038,0.6696415841579437,30449.08984375
Rosé 2016,France,Pays d'Oc,Mas Janeil,3.6,26,3.7,2016,43.604764,1.4540399,13.16077709197998,8.55661137898763,17.88679122924805,2.217992901802063,32157.847005208332,22.83044687906901,17.41865412394206,28.251073201497395,2.016917665799459,41703.369791666664,14.49949582417806,10.47453244527181,19.024263699849445,1.4759498238563538,29756.179036458332
Rosé 2019,France,South West France,Mimbeau,3.7,26,7.45,2019,44.2582021,0.297966,12.85634740193685,8.497380256652832,17.66433334350586,2.8337276776631675,30047.317708333332,22.738513310750324,17.03945795694987,28.242970784505207,1.8405733903249104,43123.317708333336,15.562655131022135,10.932505289713541,20.913633982340496,1.6174193024635315,29141.948567708332
Rosé 2018,Portugal,Douro Superior,CARM,3.7,26,9.55,2018,41.0912762,-6.8119369,13.888401985168457,7.881944179534912,20.217553456624348,1.3162006537119548,37981.470052083336,23.2912540435791,16.434380849202473,30.53970464070638,0.3368458896875381,46336.0,15.509358088175455,9.70551093419393,22.241244951883953,0.526810015241305,33431.223958333336
Roseri Valtenesi Chiaretto Rosato 2019,Italy,Lombardia,Cà Maiol,3.9,26,9.3,2019,45.5703694,9.7732524,13.101466178894043,9.069854418436686,17.179998715718586,6.160752773284912,30349.162760416668,23.574634552001953,19.06306266784668,27.94607416788737,3.882150411605835,43969.44921875,15.278255144755045,11.847095330556234,19.08327802022298,4.173261642456055,26624.625651041668
Rosado 2019,Spain,Rioja,Marqués de Riscal,3.7,27,6.85,2019,42.3285528,-2.4674917,8.700752894083658,4.600234667460124,13.438156127929688,3.5468817551930747,31272.651692708332,17.94526958465576,13.02480443318685,23.624284744262695,2.0061290661493936,42316.07421875,12.191380182902018,7.9817938804626465,17.324589411417644,2.0297850370407104,29259.714192708332
Altozano Tempranillo - Syrah Rosé 2018,Spain,Castilla,Finca Constancia,3.5,27,5.75,2018,40.4763551,-3.6800358,14.414348602294922,7.880878289540608,21.219157536824543,1.177455226580302,40616.92578125,25.462186813354492,18.30636151631673,32.35895919799805,1.2637992699940999,45832.708333333336,15.149637858072916,9.18949826558431,22.04974873860677,0.4978852992256482,34112.666015625
Rosado 2018,Spain,Rioja,Campo Viejo,3.7,27,5.99,2018,42.3285528,-2.4674917,10.798688570658365,5.430378119150798,16.707546552022297,2.0327240228652954,37035.34375,18.887142181396484,13.461686452229818,25.38217035929362,1.9408960739771526,39642.9765625,11.33245054880778,7.236829837163289,16.273496945699055,1.49433700243632,28008.844401041668
Rosé 2017,Portugal,Douro,Cascas,3.6,27,6.24,2017,41.135684,-7.1166743,13.1321013768514,8.304965813954672,17.97776222229004,3.329283078511556,34450.413411458336,25.65511194864909,18.73306655883789,32.41197395324707,0.28867383301258087,47035.740885416664,17.56288210550944,12.703765551249186,22.828335444132488,1.674552063147227,29865.655598958332
Côté Rosé 2019,France,Languedoc-Roussillon,Domaine Lafage,3.8,27,6.81,2019,43.508482,2.34549,12.461458206176758,8.999473412831625,16.142842292785645,5.153942584991455,28862.303385416668,22.012378692626953,17.613075574239094,26.300423940022785,2.892401377360026,41737.55859375,15.735968271891275,12.293344179789225,19.296192804972332,3.586415688196818,28555.106119791668
La Vie Rosé 2019,Germany,Pfalz,Dr. Von Bassermann-Jordan,3.8,27,13.69,2019,53.8156324,13.3702287,8.892620941003164,4.312749147415161,13.52642297744751,1.1478852530320485,34172.715494791664,19.474341074625652,14.565383275349935,24.109989166259766,1.2932616472244263,43771.686197916664,10.823776880900065,7.550042708714803,14.42975664138794,0.7539785106976827,22964.796223958332
il Fenicottero Toscana 2018,Italy,Toscana,Monte Guelfo,3.4,27,6.42,2018,43.4586541,11.1389204,14.597834587097168,9.299073855082193,20.345221201578777,1.255770564079285,39481.677083333336,25.264576594034832,19.118481318155926,31.773141225179035,0.6455913980801901,47021.329427083336,14.886561075846354,10.680579026540121,19.987460136413574,3.142437160015106,30773.384114583332
Moulin des Costes Bandol Rosé 2019,France,Bandol,Domaines Bunan,3.9,27,18.9,2019,43.1357717,5.7523647,14.447850227355957,11.128990968068441,17.642932573954266,3.906953493754069,35110.595052083336,24.2139949798584,20.219187418619793,27.64655367533366,1.0518279075622559,44950.359375,18.15673891703288,15.182772000630697,21.311285654703777,5.63777760664622,29509.999348958332
Perlita Rosado 2018,Argentina,Uco Valley,DiamAndes,4.0,27,9.99,2018,-34.0,-64.0,17.574238777160645,13.880897839864096,22.24233118693034,2.7636559009552,28298.94921875,11.686491330464682,7.564159552256267,16.996955553690594,0.8877419730027517,26579.169270833332,17.53554121653239,12.230199178059896,23.700844446818035,2.156559189160665,35912.783854166664
Friponne Rosé 2019,France,Maures,Saint Roux,3.5,27,9.07,2019,43.1381313,6.2355346,14.315985043843588,10.563297430674234,17.91326109568278,3.729175885518392,35509.251953125,24.703528722127277,20.182903289794922,28.708656311035156,1.63738348086675,45408.08984375,18.223767916361492,14.902849197387695,21.57430076599121,4.5924016038576765,29727.391276041668
Castel Firmian Lagrein Rosato Trentino 2018,Italy,Trentino,Mezzacorona,3.3,28,6.05,2018,46.1029536,11.1297425,10.863857587178549,5.814137935638428,15.969783465067545,2.58243727684021,37707.731770833336,21.212853749593098,15.826288859049479,26.406558354695637,3.21179207166036,45569.026041666664,10.239601453145346,6.04515955845515,14.701504071553549,2.9355197052160897,27668.541666666668
Rosé 2019,France,Vin de France,Les 5 Vallees,3.7,28,7.31,2019,50.2767373,3.977096,10.697819073994955,6.459894418716431,14.951631863911947,1.8975627024968464,30324.850911458332,19.21725336710612,14.278729438781738,23.61939239501953,1.0770250856876376,38721.834635416664,11.539963563283285,8.053908665974935,15.323443094889322,1.8395700057347615,23974.340169270832
Tellus Rosé di Syrah 2018,Italy,Lazio,Falesco,3.4,28,11.13,2018,41.9808038,12.7662312,14.917888641357422,8.900128841400146,21.280218760172527,1.4855913122495015,39845.436197916664,26.221431732177734,19.729196548461914,33.22966321309408,0.32720429946978885,47381.990885416664,15.448498407999674,10.550469557444254,20.5731938680013,3.1099640528361,31300.492838541668
Rosé 2018,South Africa,Cape Town,Cape Town Wine Co,3.1,28,7.5,2018,-33.928992,18.417396,18.738681475321453,13.527795473734537,25.270270029703777,0.22960573931535078,35049.224609375,12.630149523417154,8.535250345865885,17.163548787434895,1.7973477045694988,29373.170572916668,16.278228123982746,11.552490870157877,21.523836135864258,1.0508960882822673,38509.290364583336
Coteaux Varois en Provence Rosé 2019,France,Coteaux Varois en Provence,Château Routas,3.9,28,12.9,2019,47.283531,0.303704,12.178476333618164,7.951926549275716,16.60090510050456,2.5665591955184937,30862.489583333332,21.53227424621582,16.454203605651855,26.37454350789388,1.5673118631045024,42679.79296875,13.737252553304037,9.448790232340494,18.385045687357586,2.000394344329834,26530.7109375
Pinot Grigio Veneto Rosé 2019,Italy,Veneto,Torresella,3.8,28,6.77,2019,45.6476663,11.8665254,13.536653518676758,8.937859853108725,18.279329617818195,3.5115772088368735,32711.554036458332,23.843075434366863,18.881460825602215,28.593020757039387,2.132150491078695,44308.8515625,15.458112398783365,11.538594722747803,19.798755645751953,3.1871684789657593,28029.239583333332
The Pavillion Rosé 2019,South Africa,Paarl,Boschendal,3.4,28,6.3,2019,-33.7310282,18.9642117,18.437167485555012,12.973738034566244,25.15791384379069,1.89426522453626,32703.397135416668,12.311761220296225,7.357089678446452,17.873111089070637,3.1312904357910156,27279.024739583332,17.287007013956707,10.96646245320638,24.354185740152996,1.1061648428440096,39750.044921875
Danie de Wet Rosé 2019,South Africa,Robertson,De Wetshof,4.0,28,6.5,2019,-33.802222,19.883611,18.832853317260742,13.751071294148764,25.66005007425944,1.061469554901123,33494.518880208336,13.242268244425455,8.364781220753988,18.844458897908527,1.3799642324447632,30647.810546875,18.02977244059245,11.723079045613607,25.729332605997723,1.1193190217018127,39067.102864583336
Tempranillo Rosé 2018,Spain,La Mancha,Añoranza,3.4,28,3.95,2018,28.3774367,-16.6977504,19.17568524678548,16.703694025675457,21.887510935465496,0.41767025490601856,42135.100260416664,24.200908025105793,21.734411239624023,27.291453043619793,0.1546953444679578,44142.723958333336,22.51909828186035,20.26396306355794,25.147403081258137,0.37670249740282696,36153.1484375
Purple Rosé 2019,Italy,Toscana,Castello di Ama,4.1,28,21.82,2019,43.4586541,11.1389204,13.996342341105143,9.63066816329956,18.923661549886067,3.793333371480306,32707.034505208332,24.509926478068035,19.067066192626953,30.203266779581707,0.9437634547551473,46268.493489583336,16.94045861562093,12.712478637695312,22.170345306396484,2.4328675071398416,30088.462239583332
Rosato 2019,Italy,Puglia,Epicuro,3.6,28,5.5,2019,40.9842539,16.6210027,14.929309527079264,10.97540314992269,19.668986320495605,2.342473109563192,36028.167317708336,23.85751469930013,19.694900512695312,28.575707753499348,1.9532616535822551,45220.313802083336,16.999210039774578,13.803377469380697,21.21778615315755,1.8374910950660706,29841.659505208332
Basilicata Pipoli Rosato 2018,Italy,Basilicata,Vigneti del Vulture,3.5,29,5.77,2018,40.500571,16.081953,8.702056090037027,4.154763539632161,13.721430778503418,1.553118348121643,38973.571614583336,20.29011408487956,14.815892537434896,25.937218983968098,0.3865949759880702,47489.270833333336,10.367637952168783,6.529010772705078,15.039118131001791,1.8901792168617249,31564.202473958332
Rosado 2018,Spain,Rioja,Hacienda López de Haro,3.4,29,6.95,2018,42.3285528,-2.4674917,10.798688570658365,5.430378119150798,16.707546552022297,2.0327240228652954,37035.34375,18.887142181396484,13.461686452229818,25.38217035929362,1.9408960739771526,39642.9765625,11.33245054880778,7.236829837163289,16.273496945699055,1.49433700243632,28008.844401041668
Valley Oaks White Zinfandel 2017,United States,California,Fetzer,4.0,29,9.65,2017,36.7014631,-118.755997,-0.11143523454666138,-4.921125253041585,5.352602243423462,2.3229031960169473,41969.438802083336,13.650548299153646,7.00539763768514,20.192798614501953,0.9141935805479685,47255.28515625,5.773834784825643,0.8172795375188192,12.11143716176351,1.0787813762823741,36476.544270833336
Rosado 2019,Spain,Rioja,Hacienda López de Haro,3.4,29,6.94,2019,42.3285528,-2.4674917,8.700752894083658,4.600234667460124,13.438156127929688,3.5468817551930747,31272.651692708332,17.94526958465576,13.02480443318685,23.624284744262695,2.0061290661493936,42316.07421875,12.191380182902018,7.9817938804626465,17.324589411417644,2.0297850370407104,29259.714192708332
Rosato di Toscana Sbrancato 2018,Italy,Toscana,Tenuta Il Poggione,3.4,29,7.7,2018,43.4586541,11.1389204,14.597834587097168,9.299073855082193,20.345221201578777,1.255770564079285,39481.677083333336,25.264576594034832,19.118481318155926,31.773141225179035,0.6455913980801901,47021.329427083336,14.886561075846354,10.680579026540121,19.987460136413574,3.142437160015106,30773.384114583332
Five Roses Salento 2018,Italy,Salento,Leone de Castris,3.7,29,7.77,2018,40.248604,15.190058,12.198895772298178,6.967299143473308,17.452209790547688,1.6349461277325947,40751.768229166664,22.55588658650716,16.937155723571777,27.95375124613444,0.42734766999880475,47606.830729166664,13.670396486918131,9.465883413950602,18.409306526184082,4.535161316394806,32657.016927083332
Clair de Rose 2019,France,Pays d'Oc,Les Jamelles,3.3,29,5.56,2019,43.604764,1.4540399,12.48267904917399,8.268017768859863,17.020436604817707,3.188566287358602,30752.929036458332,22.576364517211914,16.94946797688802,28.004109700520832,1.5693190097808838,42478.255208333336,15.601071039835611,11.203662872314453,20.54557991027832,1.9136560211579006,29236.901041666668
Chiaretto Garda Classico 2019,Italy,Garda,Bulgarini,4.0,30,7.36,2019,45.5756512,10.7085298,14.031925996144613,10.6676025390625,17.41170533498128,4.4810036818186445,31648.175130208332,24.33963966369629,20.875935872395832,27.361473719278973,3.064802805582682,44219.0,16.985731442769367,14.181061426798502,19.6017427444458,3.4118994871775308,28442.048177083332
Blanc de Noir Rosé 2016,South Africa,Paarl,Niel Joubert,3.7,30,5.23,2016,-33.7310282,18.9642117,19.259193420410156,13.69864813486735,25.93642743428548,0.3048745629688104,35699.630208333336,11.61365826924642,7.004383405049642,16.88766352335612,2.6240502198537192,29078.651041666668,17.164479573567707,10.961587270100912,23.58820152282715,0.588315392533938,40435.169270833336
Merlot Rosé 2019,Argentina,San Rafael,Goyenechea,3.2,30,6.29,2019,-34.6126025,-68.330514,16.984297434488933,11.886338869730631,22.857020060221355,0.4511111043393612,34236.663411458336,7.928826014200847,2.2918225129445395,14.38305950164795,0.17946237574021018,29167.630859375,17.47135829925537,11.393292109171549,23.954994837443035,1.1274194022019703,39109.350260416664
Clos Beylesse Côtes de Provence Rosé 2019,France,Côtes de Provence,Domaine de l'Abbaye,4.5,30,19.9,2019,43.4370505,6.652775,14.172517458597818,9.440376281738281,18.81331475575765,3.2251970767974854,34775.134765625,25.250930786132812,19.404856363932293,30.425662994384766,1.240215043226878,45667.513020833336,17.593576113382976,13.263979276021322,22.038387298583984,5.715053786834081,28940.379557291668
Tinta (Barocca) Rosé 2019,South Africa,Swartland,Allesverloren,3.6,30,7.95,2019,-33.29356,18.5993825,18.844476064046223,14.011286735534668,25.505462646484375,1.1424014071623485,32795.451171875,13.38654867808024,9.310050010681152,18.458491643269856,2.0399641195933023,28628.290364583332,18.483590761820476,12.644476890563965,25.739566802978516,0.7389605591694514,39297.475260416664
Cirò Rosato 2019,Italy,Cirò,Tenuta Iuzzolini,4.0,30,6.77,2019,39.381732,17.0613529,15.62540372212728,11.619548638661703,19.645893414815266,1.6392115751902263,37511.723307291664,24.7161865234375,20.39526621500651,28.777236938476562,1.719641536474228,45632.703125,17.528247833251953,14.453383127848307,21.017542521158855,5.142831563949585,30101.561197916668
Cerasuolo d'Abruzzo 2017,Italy,Cerasuolo d'Abruzzo,Valle Reale,3.4,31,8.95,2017,42.83333,12.83333,10.722898642222086,5.86231009165446,15.431844075520834,3.4023298422495523,37039.225260416664,20.540043512980144,15.151037534077963,25.571807861328125,1.8716487884521484,44752.73046875,12.706296602884928,8.526951471964518,17.286306381225586,2.7554479837417603,29883.887369791668
Vin Ruspo 2018,Italy,Carmignano,Capezzana,3.4,31,8.9,2018,43.8140654,11.0190297,13.307058334350586,7.427496433258057,19.23136838277181,1.780609369277954,37745.3125,23.779273351033527,17.225901921590168,30.23445002237956,1.0482795933882396,46647.186197916664,13.42121156056722,8.928213278452555,18.551475207010906,3.5140857895215354,29224.674479166668
Cantaloro Rosato 2018,Italy,Toscana,Avignonesi,3.6,31,9.65,2018,43.4586541,11.1389204,14.597834587097168,9.299073855082193,20.345221201578777,1.255770564079285,39481.677083333336,25.264576594034832,19.118481318155926,31.773141225179035,0.6455913980801901,47021.329427083336,14.886561075846354,10.680579026540121,19.987460136413574,3.142437160015106,30773.384114583332
281 Rosé 2019,France,Provence,Minuty,4.5,31,52.89,2019,44.0580563,6.0638506,10.510457356770834,5.099810063838959,16.079524040222168,4.390251000722249,35418.541666666664,21.427655537923176,15.065402348836264,27.567319869995117,1.1817921102046967,45000.858072916664,13.694000879923502,8.619720617930094,19.412157376607258,3.504265214006106,29244.534505208332
Bardolino Chiaretto 2019,Italy,Bardolino Chiaretto,Gorgo,3.8,31,7.3,2019,42.71231,13.78745,13.503143946329752,8.943293650945028,17.83938694000244,3.9115771055221558,33755.460286458336,22.824139912923176,17.40155537923177,27.72273890177409,2.2563440799713135,46521.213541666664,15.786752382914225,11.806125005086264,19.945928891499836,3.2849820454915366,28052.212890625
Mediodía Rosado 2019,Spain,Navarra,Inurrieta,4.1,31,5.3,2019,42.6125488,-1.8307877,10.829254468282064,6.191607395807902,15.770747184753418,3.0847670237223306,33808.880859375,20.97940190633138,15.203292528788248,27.289223353068035,1.0935125450293224,45479.765625,14.534347216288248,9.909923076629639,19.954564412434895,1.6959856947263081,30057.392578125
Zweigelt Federspiel Terrassen Rosé 2018,Austria,Wachau,Domäne Wachau,2.7,31,9.5,2018,47.7286939,16.2263822,11.098757108052572,6.7661309242248535,15.286632219950357,1.623189926147461,34168.603515625,21.428619384765625,16.70211664835612,25.984463373819988,2.090967814127604,41975.510416666664,10.73890988032023,7.546202659606934,14.50769011179606,2.5430824756622314,23085.860026041668
Rosé de Léoube 2019,France,Côtes de Provence,Château Léoube,3.8,31,16.9,2019,43.4370505,6.652775,14.172517458597818,9.440376281738281,18.81331475575765,3.2251970767974854,34775.134765625,25.250930786132812,19.404856363932293,30.425662994384766,1.240215043226878,45667.513020833336,17.593576113382976,13.263979276021322,22.038387298583984,5.715053786834081,28940.379557291668
Kleine Rust Pinotage Rosé 2018,South Africa,Stellenbosch,Stellenrust,3.8,31,7.79,2018,-33.934444,18.869167,18.55008538564046,13.323729515075684,25.585395177205402,0.3489964008331299,34884.748046875,11.817153930664062,7.136327743530273,17.1436030069987,1.8708603382110596,28644.14453125,15.883392016092936,10.516579310099283,21.98568344116211,0.9923297762870789,38180.127604166664
Rosé 2015,Germany,Pfalz,Philipp Kuhn,3.5,32,10.01,2015,53.8156324,13.3702287,9.900286197662354,5.780543088912964,13.986008326212565,1.57415775458018,34671.641927083336,17.84143829345703,13.542639096577963,21.834484736124676,2.5456273555755615,43862.809895833336,11.58355442682902,8.952961921691895,14.357281049092608,1.6344802876313527,19580.325520833332
Solaz Rosado 2018,Spain,Castilla,Osborne,3.8,33,5.81,2018,40.4763551,-3.6800358,14.414348602294922,7.880878289540608,21.219157536824543,1.177455226580302,40616.92578125,25.462186813354492,18.30636151631673,32.35895919799805,1.2637992699940999,45832.708333333336,15.149637858072916,9.18949826558431,22.04974873860677,0.4978852992256482,34112.666015625
Pinot Grigio Ramato 2019,Italy,Friuli-Venezia Giulia,Attems,3.8,33,12.53,2019,46.151042,13.055904,13.107702573140463,8.812630891799927,17.699583371480305,4.630143324534099,31367.164713541668,23.010814030965168,17.98802439371745,27.95483462015788,3.143405040105184,42859.479166666664,14.61297861735026,10.702003479003906,19.127253532409668,6.513046582539876,25766.624348958332
Rosé 2017,Portugal,Douro,Quinta dos Avidagos,3.8,33,6.43,2017,41.135684,-7.1166743,13.1321013768514,8.304965813954672,17.97776222229004,3.329283078511556,34450.413411458336,25.65511194864909,18.73306655883789,32.41197395324707,0.28867383301258087,47035.740885416664,17.56288210550944,12.703765551249186,22.828335444132488,1.674552063147227,29865.655598958332
L'or du Sud Syrah Rosé 2017,France,Pays d'Oc,Foncalieu,3.4,33,5.32,2017,43.604764,1.4540399,11.823275566101074,7.489747683207194,16.317973136901855,2.5,32965.451171875,21.868691126505535,16.719085057576496,27.138617833455402,1.0308960874875386,41486.700520833336,15.487911224365236,11.350106080373129,20.102418581644695,1.8339067697525024,28601.802734375
Rosé 2018,Germany,Pfalz,Philipp Kuhn,3.8,33,8.84,2018,53.8156324,13.3702287,8.603902498881022,4.667211532592773,12.595884323120117,2.043691714604696,29281.971354166668,17.093416849772137,13.099612553914389,20.820940017700195,3.4780287742614746,35120.286458333336,10.350857416788736,7.967193444569905,12.828842004140219,2.396738290786743,18121.300455729168
Viña Esmeralda Rosado 2019,Spain,Catalunya,Torres,3.8,33,7.4,2019,41.8523094,1.5745043,10.015780925750732,5.989261468251546,14.83501402537028,4.487060944239299,36041.716145833336,20.694371541341145,16.022307713826496,26.277272542317707,2.89279576142629,44657.09375,13.019614219665527,9.634297211964926,17.28823979695638,4.085878213246663,29296.939453125
Vignes de Nicole Rosé 2019,France,Pézenas,Paul Mas,3.4,33,7.29,2019,43.4611777,3.4228323,13.774666786193848,9.617932001749674,18.282807032267254,4.714086135228475,33387.627604166664,24.37009620666504,19.113433202107746,29.770315170288086,1.2805734972159069,45307.701822916664,16.7613312403361,12.806552251180014,21.243595441182453,4.3106094400087995,27211.516927083332
Der Elefant im Porzellanladen 2019,Austria,Burgenland,Strehn,4.3,34,18.64,2019,47.5000001,16.4166666,11.367276589075724,7.309473117192586,15.597160498301188,2.28863795598348,33879.134114583336,21.033786137898762,17.03841495513916,25.17065493265788,2.36831533908844,42804.670572916664,12.195910771687826,9.258774280548094,15.841480255126953,2.3058064778645835,25311.174153645832
Coteaux Bourguignons Rosé 2018,France,Coteaux Bourguignons,Louis Jadot,3.6,34,13.57,2018,48.130756,4.353561,11.538899421691895,6.896923065185547,16.0460262298584,1.9317921996116638,33370.236979166664,20.120875040690105,15.517084121704102,24.565954208374023,2.4694265524546304,39333.899739583336,11.641693751017252,8.285686413447062,15.209933280944824,2.866380055745443,22382.9375
Fronton Rosé 2018,France,Fronton,Château Bellevue La Forét,3.6,34,7.44,2018,43.840295,1.390285,13.268231074015299,7.976404984792073,18.893752415974934,2.7243010997772217,34841.372395833336,22.208465576171875,17.204701741536457,27.63077672322591,2.048638025919596,38720.266927083336,13.286967595418295,8.990544954935709,18.226906458536785,1.092616508404414,26421.248697916668
Côtes de Provence Rosé 2018,France,Côtes de Provence,Domaine l'Ile Porquerolles,3.6,35,17.5,2018,43.4370505,6.652775,14.916397094726562,9.450949827829996,20.454103469848633,1.6874193747838337,39301.10546875,25.4428513844808,19.726971944173176,31.13584327697754,0.20200716083248457,47460.454427083336,15.911219278971354,11.008405208587646,21.98125457763672,0.8070967607200146,33187.498697916664
Mas Donis Rosat Montsant 2019,Spain,Montsant,Capçanes,3.6,35,6.75,2019,41.1171253,1.211005,14.957111676534018,11.11544926961263,19.10740343729655,1.6301792065302532,37237.395182291664,24.796328862508137,20.977762858072918,28.757421493530273,1.5393548707167308,45733.0625,18.14708360036214,14.740091323852539,21.922940572102863,4.325735092163086,31094.175130208332
Cuvée Speciale des Vignettes Rosé 2016,France,Provence,Clos Cibonne,4.2,36,22.9,2016,44.0580563,6.0638506,11.185478369394938,4.575381636619568,16.590524673461914,1.1286021570364635,38501.943359375,21.45704714457194,14.287747383117676,27.118375778198242,1.5684229532877605,46357.33203125,11.312084833780924,5.518840432167053,17.132927576700848,1.913118342558543,32143.847005208332
Bardolino Chiaretto Classico 2018,Italy,Bardolino Classico,Villabella,3.8,36,7.18,2018,42.83333,12.83333,10.693307558695475,4.006231149037679,16.70938523610433,1.9894982973734539,39602.078125,22.46411387125651,15.005531946818033,28.969994227091473,0.9702867070833842,47036.95703125,11.305813312530518,5.773005247116089,16.654420534769695,3.3380644718805947,30682.592447916668
Garrus Rosé 2018,France,Côtes de Provence,Château d'Esclans,4.8,36,109.0,2018,43.4370505,6.652775,14.916397094726562,9.450949827829996,20.454103469848633,1.6874193747838337,39301.10546875,25.4428513844808,19.726971944173176,31.13584327697754,0.20200716083248457,47460.454427083336,15.911219278971354,11.008405208587646,21.98125457763672,0.8070967607200146,33187.498697916664
Tavel Beaurevoir 2018,France,Tavel,M. Chapoutier,4.1,36,15.5,2018,44.0127055,4.6982216,14.33039410909017,9.636229197184244,19.59074592590332,2.543512463569641,37837.602213541664,24.59756596883138,19.081337610880535,30.628774007161457,0.6494265198707581,45929.200520833336,14.771384239196777,10.70766305923462,19.846605618794758,0.7966308419903121,31643.250651041668
Pinot Noir Rosé Trocken 2019,Germany,Rheinhessen,Seehof,3.8,36,7.5,2019,49.9045181,8.2711082,11.464224815368652,6.556475023428599,16.42699432373047,1.8164873917897542,34058.643880208336,21.86259396870931,16.26235230763753,27.094126383463543,0.9610035518805186,43390.799479166664,11.904031117757162,7.1783028443654375,16.95111592610677,0.7535125315189362,24758.927408854168
Memòries de Biniagual Rosado 2018,Spain,Binissalem-Mallorca,Biniagual,3.8,36,12.57,2018,39.6002717,2.6720865,16.43283208211263,11.331781705220541,21.845598220825195,0.9004300932089487,41130.520833333336,26.289386749267578,21.188913345336914,32.22581418355306,0.7962724305689335,45759.34765625,18.18487040201823,14.143842379252115,22.84532928466797,1.0656989614168804,31704.440755208332
L'Origine Côtes de Provence Rosé 2019,France,Côtes de Provence,Château de l'Aumerade,3.6,37,10.99,2019,43.4370505,6.652775,14.172517458597818,9.440376281738281,18.81331475575765,3.2251970767974854,34775.134765625,25.250930786132812,19.404856363932293,30.425662994384766,1.240215043226878,45667.513020833336,17.593576113382976,13.263979276021322,22.038387298583984,5.715053786834081,28940.379557291668
Bardolino Chiaretto 2017,Italy,Bardolino,Delibori,3.7,37,6.2,2017,45.5475595,10.7242145,13.457677841186523,9.07169516881307,17.19769827524821,2.8804301023483276,37057.507161458336,23.695597330729168,19.81427574157715,27.168628692626953,2.7939783732096353,45765.921875,15.283514022827148,12.609240531921387,18.006784439086914,2.3672401905059814,27461.504557291668
Alghero Rosato 2019,Italy,Alghero,Sella & Mosca,3.4,37,6.69,2019,40.584479,8.3576056,15.195608139038086,12.396170298258463,18.265006065368652,3.5187814235687256,35614.779947916664,24.432132720947266,20.83695920308431,28.143822352091473,0.842042994995912,44960.09765625,19.281510670979817,16.50362491607666,22.44265874226888,2.7525806029637656,30330.524088541668
Haedus Côtes de Provence Rosé 2019,France,Provence,Ferry Lacombe,3.8,38,9.7,2019,44.0580563,6.0638506,10.510457356770834,5.099810063838959,16.079524040222168,4.390251000722249,35418.541666666664,21.427655537923176,15.065402348836264,27.567319869995117,1.1817921102046967,45000.858072916664,13.694000879923502,8.619720617930094,19.412157376607258,3.504265214006106,29244.534505208332
Pinot Noir Rosé Trocken 2019,Germany,Rheingau,Balthasar Ress,3.4,38,7.9,2019,50.1339394,8.0701591,10.071676015853882,5.783634761969249,14.3677929242452,2.1287454764048257,34484.149088541664,19.292821884155273,14.451376914978027,23.873204549153645,1.542401393254598,43252.524739583336,10.456207275390625,7.088688691457112,14.219638347625732,1.050501823425293,23999.269205729168
Merlot Rosé Trocken 2018,Germany,Pfalz,Weingut Metzger,3.7,38,6.77,2018,53.8156324,13.3702287,8.603902498881022,4.667211532592773,12.595884323120117,2.043691714604696,29281.971354166668,17.093416849772137,13.099612553914389,20.820940017700195,3.4780287742614746,35120.286458333336,10.350857416788736,7.967193444569905,12.828842004140219,2.396738290786743,18121.300455729168
La Source Gabriel Côtes de Provence Rosé 2019,France,Côtes de Provence,Château La Tour de l'Évêque,3.9,38,8.55,2019,43.4370505,6.652775,14.172517458597818,9.440376281738281,18.81331475575765,3.2251970767974854,34775.134765625,25.250930786132812,19.404856363932293,30.425662994384766,1.240215043226878,45667.513020833336,17.593576113382976,13.263979276021322,22.038387298583984,5.715053786834081,28940.379557291668
Piemonte Lavignone Rosato 2019,Italy,Piemonte,Pico Maccario,3.9,38,10.5,2019,45.060735,7.923549,11.631245613098145,7.380270799001058,16.229804674784344,4.7154481410980225,29161.242838541668,22.345937093098957,17.597654978434246,27.403443654378254,2.9367024898529053,42740.743489583336,14.052151362101236,10.439445972442627,18.178012530008953,3.9141218662261963,24827.297200520832
Classic Rosé Blend 2018,South Africa,Paarl,Roodeberg,3.5,38,8.32,2018,-33.7310282,18.9642117,19.582629521687824,13.229598681131998,27.629580815633137,0.40215054154396057,35010.957682291664,11.802757581075033,6.48737637201945,17.697771072387695,2.65609339872996,28885.1640625,16.720678965250652,10.481892903645834,23.783684412638348,1.1632974743843079,37707.024739583336
Blush Karasakiz 2018,Turkey,Thrace,Suvla,3.7,39,12.0,2018,41.2170107,27.116227,12.951876004536947,7.165444056193034,18.896663347880047,2.067060907681783,37565.923828125,24.58503595987956,18.57092793782552,30.686915079752605,1.3797132422526677,45211.4609375,15.618116696675619,10.691609541575113,21.066250801086426,2.7192114988962808,29090.151041666668
Portillo Rosé Malbec 2019,Argentina,Tunuyán,Salentein,3.6,39,7.81,2019,-33.5812925,-69.0154258,15.146018028259277,9.318977038065592,22.07897694905599,0.49792113651831943,35097.563802083336,4.886048158009847,-0.6939264933268229,12.340912818908691,0.745089590549469,30046.569010416668,15.972005844116211,9.111503918965658,23.263547897338867,2.319211502869924,41025.794270833336
Passivento Nero d'Avola Rosato 2018,Italy,Terre Siciliane,Barone Montalto,4.0,39,8.29,2018,42.83333,12.83333,10.693307558695475,4.006231149037679,16.70938523610433,1.9894982973734539,39602.078125,22.46411387125651,15.005531946818033,28.969994227091473,0.9702867070833842,47036.95703125,11.305813312530518,5.773005247116089,16.654420534769695,3.3380644718805947,30682.592447916668
Pink 2019,Germany,Pfalz,Weingut Metzger,3.6,39,6.29,2019,53.8156324,13.3702287,8.892620941003164,4.312749147415161,13.52642297744751,1.1478852530320485,34172.715494791664,19.474341074625652,14.565383275349935,24.109989166259766,1.2932616472244263,43771.686197916664,10.823776880900065,7.550042708714803,14.42975664138794,0.7539785106976827,22964.796223958332
Pierre Jourdan Tranquille Blush 2019,South Africa,Franschhoek,Haute Cabrière,3.8,40,7.95,2019,-33.909167,19.119444,17.358415921529133,12.80373446146647,23.242336908976238,4.664516011873881,33148.66015625,12.103876431783041,7.900508880615234,16.60857359568278,6.612939357757568,27810.714192708332,16.325656572977703,10.94129721323649,22.600723266601562,2.5448388854662576,39790.046875
Cerasuolo Montepulciano d'Abruzzo Rosé 2018,Italy,Cerasuolo d'Abruzzo,Valentini,4.1,40,92.15,2018,42.83333,12.83333,10.693307558695475,4.006231149037679,16.70938523610433,1.9894982973734539,39602.078125,22.46411387125651,15.005531946818033,28.969994227091473,0.9702867070833842,47036.95703125,11.305813312530518,5.773005247116089,16.654420534769695,3.3380644718805947,30682.592447916668
Clos Mireille Rosé (Coeur de Grain) 2019,France,Côtes de Provence,Domaines Ott,4.2,40,29.15,2019,43.4370505,6.652775,14.172517458597818,9.440376281738281,18.81331475575765,3.2251970767974854,34775.134765625,25.250930786132812,19.404856363932293,30.425662994384766,1.240215043226878,45667.513020833336,17.593576113382976,13.263979276021322,22.038387298583984,5.715053786834081,28940.379557291668
Cipresseto Rosato Toscana 2019,Italy,Toscana,Santa Cristina,3.6,40,11.02,2019,43.4586541,11.1389204,13.996342341105143,9.63066816329956,18.923661549886067,3.793333371480306,32707.034505208332,24.509926478068035,19.067066192626953,30.203266779581707,0.9437634547551473,46268.493489583336,16.94045861562093,12.712478637695312,22.170345306396484,2.4328675071398416,30088.462239583332
Grenache Noir - Viognier 2018,South Africa,Walker Bay,Creation,3.8,40,12.81,2018,-34.518515,19.2880206,18.538206100463867,14.845513979593912,23.472001393636067,0.4465949833393097,34139.140625,13.272539456685385,9.64802328745524,17.22486941019694,2.0777061780293784,29356.502604166668,16.268792152404785,12.6836150487264,20.57322057088216,1.561720569928487,37637.755859375
Lagrein Rosé 2018,Italy,Vigneti delle Dolomiti,Alois Lageder,3.5,40,9.9,2018,46.38333,11.85,2.235321988662084,-3.0407294034957886,7.546438852945964,3.4009319146474204,36786.68359375,12.091317494710287,6.728034019470215,17.224306106567383,4.347849369049072,43520.40625,2.1769234339396157,-2.1823960840702057,7.31029200553894,3.991182883580526,26207.591145833332
1701 Rosé 2018,France,Languedoc,Domaine Montrose,4.1,40,25.21,2018,43.6796869,1.3966515,13.542388916015625,8.288139661153158,19.145344416300457,2.790035843849182,35105.281901041664,22.47248077392578,17.608444849650066,27.81518300374349,1.809283177057902,37921.236979166664,13.687856356302897,9.449430465698242,18.574663480122883,1.1632616718610127,26909.650390625
Rosé 2018,South Africa,Western Cape,Laborie,3.9,40,6.78,2018,-33.546977,20.72753,17.78432623545329,11.342897733052572,26.0952631632487,0.39917562405268353,34552.071614583336,10.732988675435385,4.633166631062825,17.84585444132487,0.5437275966008505,31304.844401041668,15.76856517791748,9.09187618891398,24.01895523071289,0.916523297627767,39232.158854166664
Bella Rosa-ae Rosé 2019,Italy,Cerasuolo d'Abruzzo,Torre dei Beati,3.8,41,14.73,2019,42.83333,12.83333,10.944860617319742,5.61612343788147,15.99802335103353,4.016845901807149,32957.818359375,20.684879302978516,13.892772356669107,26.438435236612957,1.5591397881507874,46079.90234375,13.052374521891275,7.969582398732503,18.79178587595622,3.1346237659454346,29003.87109375
Rosa Rosé 2018,Italy,Venezia,Borgo Molino,3.6,41,10.24,2018,45.4371908,12.3345898,14.042205174763998,9.753222147623697,18.32058811187744,2.153225859006246,37085.122395833336,24.32598813374837,19.994637807210285,28.43273862202962,2.2623297373453775,45526.26953125,13.617509841918945,10.155713240305582,17.556161244710285,3.884982148806254,25695.791015625
Starlette Shiraz Rosé 2019,South Africa,Franschhoek,Allée Bleue,3.8,41,8.95,2019,-33.909167,19.119444,17.358415921529133,12.80373446146647,23.242336908976238,4.664516011873881,33148.66015625,12.103876431783041,7.900508880615234,16.60857359568278,6.612939357757568,27810.714192708332,16.325656572977703,10.94129721323649,22.600723266601562,2.5448388854662576,39790.046875
Amstramgram Grande Cuvée Cérès 2019,France,Languedoc,Calmel & Joseph,3.6,42,7.75,2019,43.6796869,1.3966515,12.647172927856445,8.340057531992594,17.29120381673177,2.9420789877573648,30364.876953125,22.785316467285156,17.187691688537598,28.222691853841145,1.4885305960973103,42204.509114583336,15.65881379445394,11.219394207000732,20.722602208455402,1.6423297723134358,29045.424479166668
Langhe Rosato Diecigradi 2017,Italy,Langhe,Broccardo,3.9,42,8.6,2017,44.493036,7.974639,10.130621751149496,5.984539310137431,14.302066167195639,3.1348745028177896,35637.61328125,20.323503494262695,16.04355303446452,24.57362429300944,3.10437281926473,44106.444010416664,11.905310789744057,8.601062536239624,15.628463745117188,5.4721150398254395,25587.94140625
Château La Rouvière Rosé 2015,France,Bandol,Domaines Bunan,4.0,42,34.9,2015,43.1357717,5.7523647,14.27984873453776,10.679752826690674,17.87837282816569,0.7119354903697968,40670.877604166664,22.654739379882812,18.90656280517578,26.19116973876953,1.1470967928568523,46624.251302083336,18.235116004943848,15.783642133076986,20.801294326782223,4.792652368545533,30476.038411458332
Vignealte Bardolino Classico Chiaretto 2019,Italy,Bardolino Classico,Zeni,3.8,42,7.9,2019,42.83333,12.83333,10.944860617319742,5.61612343788147,15.99802335103353,4.016845901807149,32957.818359375,20.684879302978516,13.892772356669107,26.438435236612957,1.5591397881507874,46079.90234375,13.052374521891275,7.969582398732503,18.79178587595622,3.1346237659454346,29003.87109375
Petula Rosé 2019,France,Luberon,Marrenon,3.6,42,8.95,2019,43.8559446,5.5895866,12.054649353027344,7.034876187642415,17.272438367207844,4.482437292734782,34437.861979166664,22.68789291381836,16.609392166137695,28.539679209391277,1.5688530256350834,45077.959635416664,15.135268211364746,10.677403291066488,20.15872859954834,4.391361989080906,28268.158203125
Rioja Rosado 2019,Spain,Rioja,Baron de Ley,3.3,43,5.45,2019,42.3285528,-2.4674917,8.700752894083658,4.600234667460124,13.438156127929688,3.5468817551930747,31272.651692708332,17.94526958465576,13.02480443318685,23.624284744262695,2.0061290661493936,42316.07421875,12.191380182902018,7.9817938804626465,17.324589411417644,2.0297850370407104,29259.714192708332
Zweigelt Langenloiser Rosé 2019,Austria,Niederösterreich,Weingut Bründlmayer,3.9,44,8.98,2019,48.2817813,15.7632457,11.404049475987753,6.188856681187947,16.532010237375896,1.3431541522343953,34718.966796875,20.97071711222331,15.86790657043457,26.004859288533527,2.3764516115188603,41484.588541666664,11.585113366444906,7.544716835021973,16.058444341023762,2.0450538396835327,24637.1787109375
Discover Rosé 2019,South Africa,Western Cape,Spier,3.7,44,5.5,2019,-33.546977,20.72753,16.783308664957683,11.353095054626465,24.092073440551758,0.48978492617607117,33064.50390625,10.956126848856607,5.29522720972697,17.86291567484538,0.5084229310353597,30441.649088541668,16.269717852274578,9.2468581199646,24.539976755777996,0.6114337146282196,39196.901041666664
Lacrimarosa Irpinia Rosato 2019,Italy,Irpinia,Mastroberardino,3.4,45,11.15,2019,39.2278067,9.1185486,15.256067276000977,12.095753033955893,18.74193541208903,3.5280644496281943,35445.542317708336,24.631598154703777,20.87395985921224,28.880699157714844,1.0259498765226454,44659.80859375,19.36682065327962,16.490841547648113,22.658260345458984,2.9944801727930703,30195.489583333332
Le Champ des Grillons Rosé 2019,France,Côtes de Thongue,La Croix Belle,3.8,45,7.95,2019,45.508189,2.697212,7.4697214762369795,4.0113924741744995,11.458722114562988,4.967132647832234,30008.059244791668,16.781768163045246,12.648364067077637,20.98544184366862,2.181648770968119,41893.42578125,10.542189280192057,7.2019838492075605,14.772090911865236,2.2425090074539185,28107.3828125
Côtes de Provence Rosé 2019,France,Côtes de Provence,Domaine Pinchinat,4.1,45,10.65,2019,43.4370505,6.652775,14.172517458597818,9.440376281738281,18.81331475575765,3.2251970767974854,34775.134765625,25.250930786132812,19.404856363932293,30.425662994384766,1.240215043226878,45667.513020833336,17.593576113382976,13.263979276021322,22.038387298583984,5.715053786834081,28940.379557291668
Blush Karasakiz 2017,Turkey,Thrace,Suvla,3.4,46,12.0,2017,41.2170107,27.116227,14.725042661031088,9.283259550730387,20.007219950358074,1.5212903022766116,38379.589192708336,25.58155632019043,19.60112762451172,31.430912653605144,0.6454121480540683,47428.481770833336,15.761752764383951,11.117327690124512,20.77376206715902,1.2305376132329304,30248.233723958332
Belleruche Côtes du Rhône Rosé 2019,France,Côtes-du-Rhône,M. Chapoutier,3.6,46,9.69,2019,44.7667285,4.8528701,12.627632935841879,7.6199173132578535,17.811459223429363,3.4630107084910073,33072.662109375,23.33846664428711,17.84636942545573,28.67240842183431,1.2342293659845989,46073.899739583336,14.725108464558922,10.297139326731363,19.490867614746094,4.207921579480171,28111.283854166668
Alta Colección Rosado Mendoza 2019,Argentina,Uco Valley,Bodega Piedra Negra,3.8,46,8.72,2019,-34.0,-64.0,18.872100830078125,15.086363156636557,23.857635498046875,1.426129142443339,26936.861328125,9.643736839294434,5.179948012034099,15.186148325602213,0.6163799266020457,28310.869140625,19.036723454793293,13.977959314982096,24.94566472371419,2.7417203982671103,36108.85546875
Regaleali Le Rosè 2019,Italy,Terre Siciliane,Tasca d'Almerita,3.7,47,7.66,2019,42.83333,12.83333,10.944860617319742,5.61612343788147,15.99802335103353,4.016845901807149,32957.818359375,20.684879302978516,13.892772356669107,26.438435236612957,1.5591397881507874,46079.90234375,13.052374521891275,7.969582398732503,18.79178587595622,3.1346237659454346,29003.87109375
Rosat 2018,Spain,Catalunya,Segura Viudas,3.3,47,6.99,2018,41.8523094,1.5745043,12.18991502126058,7.355301062266032,17.819799423217773,2.661612868309021,40401.881510416664,22.03252347310384,16.735551834106445,28.24596405029297,1.4179928302764893,45268.873697916664,12.543094952901205,8.80748693148295,17.401357968648274,1.6383153734107812,32487.842447916668
Viñas Viejas Rosado 2017,Spain,Castilla y León,Marqués de Riscal,4.1,47,33.99,2017,41.55005,-5.1387401,9.447126865386963,4.657526850700378,14.400412559509277,1.900573452313741,36897.049479166664,22.535006205240887,15.107186317443848,29.45768864949544,0.1464874514689048,47577.891927083336,14.262890338897705,8.961182832717896,19.69109312693278,1.306630790233612,30754.9296875
Kòmaros Rosato 2019,Italy,Marche,Garofoli,3.9,48,6.9,2019,43.3458388,13.1415872,12.084261099497477,8.394125064214071,16.05772813161214,3.5681364138921103,33515.860677083336,21.91981252034505,17.430809656778973,26.52914301554362,2.068458914756775,45433.19921875,14.451205889383955,10.972046375274658,18.539053599039715,2.852724075317383,27715.944661458332
Il Rosato 2019,Italy,Vino d'Italia,Nervi,3.8,48,14.45,2019,41.2674815,16.4404727,16.32573890686035,12.393729368845621,20.679087320963543,2.1159139573574066,36411.16015625,25.67677625020345,21.751040776570637,29.706022262573242,1.3313261270523071,45904.576822916664,18.95238431294759,15.771273295084635,22.655359903971355,1.765878160794576,30361.343098958332
Rosé 2019,Italy,Toscana,Brancaia,3.7,48,11.0,2019,43.4586541,11.1389204,13.996342341105143,9.63066816329956,18.923661549886067,3.793333371480306,32707.034505208332,24.509926478068035,19.067066192626953,30.203266779581707,0.9437634547551473,46268.493489583336,16.94045861562093,12.712478637695312,22.170345306396484,2.4328675071398416,30088.462239583332
Rosat 2017,Spain,Pla de Bages,Abadal,3.6,49,7.88,2017,41.7785429,1.8904077,12.303645769755045,6.795211553573608,18.058401107788086,1.9792473713556926,37652.122395833336,23.0487486521403,17.1325044631958,29.24961980183919,0.8980644941329956,47101.897135416664,15.491697629292807,11.050139586130777,20.471268971761067,2.7162722746531167,30774.322265625
Côtes de Provence Rosé 2017,France,Côtes de Provence,Domaine de La Rouillère,3.8,49,26.22,2017,43.4370505,6.652775,14.163895606994629,9.858582337697348,18.2557160059611,0.9791039427121481,39438.692708333336,24.203798294067383,19.662973403930664,28.32454999287923,0.3964157948891322,47256.888020833336,17.28427855173747,13.843671798706055,20.57060782114665,3.5204301675160727,30518.247395833332
Côtes de Provence Rosé 2018,France,Côtes de Provence,Château des Sarrins,4.0,49,13.0,2018,43.4370505,6.652775,14.916397094726562,9.450949827829996,20.454103469848633,1.6874193747838337,39301.10546875,25.4428513844808,19.726971944173176,31.13584327697754,0.20200716083248457,47460.454427083336,15.911219278971354,11.008405208587646,21.98125457763672,0.8070967607200146,33187.498697916664
Dão Colheita Seleccionada Rose 2019,Portugal,Dão,Cabriz,3.7,49,7.27,2019,39.9375585,-7.8638768,10.505498250325521,6.603505611419678,14.831193606058756,5.640537619590759,30821.033203125,19.93928400675456,14.589902877807617,25.909975051879883,1.2418996145327885,43473.481770833336,15.439390818277994,11.238666693369547,20.226104418436687,3.5201792319615683,29851.947916666668
Suivez-Moi-Jeune-Homme Coteaux Varois en Provence 2019,France,Coteaux Varois en Provence,Château des Annibals,3.8,50,11.8,2019,47.283531,0.303704,12.178476333618164,7.951926549275716,16.60090510050456,2.5665591955184937,30862.489583333332,21.53227424621582,16.454203605651855,26.37454350789388,1.5673118631045024,42679.79296875,13.737252553304037,9.448790232340494,18.385045687357586,2.000394344329834,26530.7109375
Sant'Emiliano Chiaretto Rosé 2018,Italy,Garda,Pratello,3.7,50,8.75,2018,45.5756512,10.7085298,14.967268943786621,11.027458667755127,18.727889696757,1.9519355098406475,37194.731770833336,25.598712921142578,21.405738830566406,29.315953572591145,3.187598705291748,45786.684895833336,15.048519134521484,12.083767096201578,17.54704761505127,3.478996296723684,27278.43359375
Otazu Tempranillo Rosé 2018,Spain,Navarra,Bodega Otazu,3.7,51,8.45,2018,42.6125488,-1.8307877,12.848286310831705,7.0818227132161455,18.951427777608234,1.4764515956242878,38761.120442708336,21.26291783650716,15.647556940714518,27.904133478800457,1.1720430254936218,43558.579427083336,13.239756266276041,8.52795155843099,18.821266174316406,1.047885278860728,28839.788411458332
Villa la Vie en Rosé 2019,France,Comté Tolosan,Lionel Osmin & Cie,3.6,51,7.3,2019,43.105511,5.844843,14.168350219726562,10.849490960439047,17.363434791564945,3.906953493754069,35110.595052083336,23.934497197469074,19.93968900044759,27.367054621378582,1.0518279075622559,44950.359375,17.8772398630778,14.90327231089274,21.0317850112915,5.63777760664622,29509.999348958332
Rosé de Diel Trocken 2018,Germany,Nahe,Diel,3.8,51,13.48,2018,49.5404375,7.0255739,9.102155526479086,4.6812582810719805,13.597888946533203,1.8524372677008312,33567.498697916664,17.414154688517254,13.179913838704428,21.521668752034504,2.7254480123519897,38086.114583333336,8.56158717473348,5.428390741348267,11.749555269877115,3.1749463081359863,20608.124348958332
Rosammuri Rosato 2018,Italy,Terre Siciliane,Tenuta Rapitalà,3.5,51,7.7,2018,42.83333,12.83333,10.693307558695475,4.006231149037679,16.70938523610433,1.9894982973734539,39602.078125,22.46411387125651,15.005531946818033,28.969994227091473,0.9702867070833842,47036.95703125,11.305813312530518,5.773005247116089,16.654420534769695,3.3380644718805947,30682.592447916668
Rosado 2018,Spain,Binissalem-Mallorca,Macià Batle,3.5,52,11.8,2018,39.6002717,2.6720865,16.43283208211263,11.331781705220541,21.845598220825195,0.9004300932089487,41130.520833333336,26.289386749267578,21.188913345336914,32.22581418355306,0.7962724305689335,45759.34765625,18.18487040201823,14.143842379252115,22.84532928466797,1.0656989614168804,31704.440755208332
Côtes de Provence Rosé 2019,France,Côtes de Provence,Le Paradou,4.1,52,16.55,2019,43.4370505,6.652775,14.172517458597818,9.440376281738281,18.81331475575765,3.2251970767974854,34775.134765625,25.250930786132812,19.404856363932293,30.425662994384766,1.240215043226878,45667.513020833336,17.593576113382976,13.263979276021322,22.038387298583984,5.715053786834081,28940.379557291668
Grenache Noir - Viognier 2019,South Africa,Walker Bay,Creation,3.5,52,11.99,2019,-34.518515,19.2880206,17.9747314453125,14.607037544250488,22.673864364624023,1.158351292212804,31673.155598958332,13.761849085489908,10.0875031153361,18.096786499023438,2.600465973218282,29334.572265625,16.7324431737264,12.841553370157877,21.395172754923504,1.3830107649167378,39515.178385416664
Clos du Temple 2018,France,Languedoc,Gérard Bertrand,4.5,52,249.0,2018,43.6796869,1.3966515,13.542388916015625,8.288139661153158,19.145344416300457,2.790035843849182,35105.281901041664,22.47248077392578,17.608444849650066,27.81518300374349,1.809283177057902,37921.236979166664,13.687856356302897,9.449430465698242,18.574663480122883,1.1632616718610127,26909.650390625
Terre Lontane Rosato 2018,Italy,Val di Neto,Librandi,3.6,52,7.71,2018,39.1881325,16.8550962,15.343389193216959,10.240426699320475,20.571823120117188,0.855483889579773,41054.421875,27.41325314839681,21.137648900349934,33.44522921244303,0.10896057239733632,47429.391927083336,16.96695677439372,12.4932222366333,22.10099919637044,2.2511470119158425,32855.583333333336
Sangre de Toro Rosado 2018,Spain,Catalunya,Torres,3.2,53,8.89,2018,41.8523094,1.5745043,12.18991502126058,7.355301062266032,17.819799423217773,2.661612868309021,40401.881510416664,22.03252347310384,16.735551834106445,28.24596405029297,1.4179928302764893,45268.873697916664,12.543094952901205,8.80748693148295,17.401357968648274,1.6383153734107812,32487.842447916668
Spatburgunder Rosé Trocken 2013,Germany,Pfalz,Reichsrat von Buhl,3.8,53,10.69,2013,53.8156324,13.3702287,8.963403860727945,4.603320598602295,13.1476043065389,1.0706451733907063,33837.637369791664,17.101465861002605,12.976295471191406,21.079844156901043,2.141182780265808,38349.776041666664,9.656363805135092,6.8862418333689375,12.615811665852865,1.726487437884013,20657.2880859375
Grand Ferrage Côtes de Provence 2019,France,Côtes de Provence,Mathilde Chapoutier,4.0,53,13.0,2019,43.4370505,6.652775,14.172517458597818,9.440376281738281,18.81331475575765,3.2251970767974854,34775.134765625,25.250930786132812,19.404856363932293,30.425662994384766,1.240215043226878,45667.513020833336,17.593576113382976,13.263979276021322,22.038387298583984,5.715053786834081,28940.379557291668
Bardolino Chiaretto 2018,Italy,Bardolino,Sartori,3.3,53,8.67,2018,45.5475595,10.7242145,14.76465638478597,10.52291981379191,19.09650421142578,1.8189606269200642,37321.34765625,25.517191569010418,21.142632802327473,29.559228261311848,2.940752625465393,45794.35546875,14.687912940979004,11.683223724365234,17.70240020751953,3.102616528669993,27004.0
Rosé 2017,Italy,Sicilia,Stemmari,3.5,54,5.84,2017,37.587794,14.155048,14.422636349995932,8.63542652130127,20.19834836324056,0.9371326069037119,39894.19140625,24.186477025349934,17.686376571655273,30.50664520263672,0.5153763343890508,45872.006510416664,17.517440478007,13.356394449869791,22.460533777872723,1.5342293977737427,31425.871744791668
Guarda Rios Rosé 2018,Portugal,Ribatejo,Vale d'Algares,3.3,54,5.85,2018,41.1828303,-8.6464755,14.759653409322103,11.033499399820963,18.828823725382488,3.1149462461471558,39367.834635416664,19.30442937215169,15.754019737243652,23.126923243204754,0.35541220009326935,44799.501302083336,15.790939648946127,12.351492563883463,20.282766342163086,1.6409318633377552,32466.983723958332
Corail Côtes de Provence 2019,France,Côtes de Provence,Château de Roquefort,3.9,54,12.9,2019,43.4370505,6.652775,14.172517458597818,9.440376281738281,18.81331475575765,3.2251970767974854,34775.134765625,25.250930786132812,19.404856363932293,30.425662994384766,1.240215043226878,45667.513020833336,17.593576113382976,13.263979276021322,22.038387298583984,5.715053786834081,28940.379557291668
De Casta Rosado 2019,Spain,Catalunya,Torres,3.4,54,5.59,2019,41.8523094,1.5745043,10.015780925750732,5.989261468251546,14.83501402537028,4.487060944239299,36041.716145833336,20.694371541341145,16.022307713826496,26.277272542317707,2.89279576142629,44657.09375,13.019614219665527,9.634297211964926,17.28823979695638,4.085878213246663,29296.939453125
Côtes de Provence Rosé 2019,France,Côtes de Provence,Hecht & Bannier,4.0,54,12.9,2019,43.4370505,6.652775,14.172517458597818,9.440376281738281,18.81331475575765,3.2251970767974854,34775.134765625,25.250930786132812,19.404856363932293,30.425662994384766,1.240215043226878,45667.513020833336,17.593576113382976,13.263979276021322,22.038387298583984,5.715053786834081,28940.379557291668
Rose de Petro Vaselo Pinot Noir 2017,Romania,Recas,Petro Vaselo,3.8,54,11.9,2017,45.8017298,21.5094023,12.871176719665527,7.67293906211853,17.744731585184734,2.3537992238998413,34993.347005208336,22.00906244913737,16.913458506266277,26.58286730448405,3.5779927571614585,42983.161458333336,11.753345012664795,7.568440914154053,15.988512674967447,2.0622223218282065,25530.595703125
Grenache Rosado 2018,Spain,La Mancha,Costa Azul,3.2,54,5.16,2018,28.3774367,-16.6977504,19.17568524678548,16.703694025675457,21.887510935465496,0.41767025490601856,42135.100260416664,24.200908025105793,21.734411239624023,27.291453043619793,0.1546953444679578,44142.723958333336,22.51909828186035,20.26396306355794,25.147403081258137,0.37670249740282696,36153.1484375
Chiaretto Garda Classico 2018,Italy,Garda,Bulgarini,3.9,55,8.68,2018,45.5756512,10.7085298,14.967268943786621,11.027458667755127,18.727889696757,1.9519355098406475,37194.731770833336,25.598712921142578,21.405738830566406,29.315953572591145,3.187598705291748,45786.684895833336,15.048519134521484,12.083767096201578,17.54704761505127,3.478996296723684,27278.43359375
Fossa Granara Bardolino Chiaretto 2018,Italy,Bardolino Chiaretto,Tommasi,3.7,55,8.4,2018,42.71231,13.78745,13.298408508300781,7.949888865152995,18.461179733276367,2.445985476175944,40177.192708333336,24.360387802124023,18.304566701253254,29.906716028849285,0.39258064577976864,47554.875,14.562543551127115,9.84650150934855,19.38879458109538,3.6469531853993735,30947.531901041668
Bardolino Chiaretto 2012,Italy,Bardolino,Corte Giara,3.4,55,6.95,2012,45.5475595,10.7242145,14.407272338867188,9.449706395467123,18.525619188944496,1.6039427022139232,39315.260416666664,22.895109176635742,19.044490178426106,26.41224988301595,2.8965232372283936,45678.453125,15.344833374023438,12.555817445119223,18.307411511739094,2.9832615852355957,30961.00390625
RosesRoses 2019,Italy,Veneto,Ottella,3.9,55,8.9,2019,45.6476663,11.8665254,13.536653518676758,8.937859853108725,18.279329617818195,3.5115772088368735,32711.554036458332,23.843075434366863,18.881460825602215,28.593020757039387,2.132150491078695,44308.8515625,15.458112398783365,11.538594722747803,19.798755645751953,3.1871684789657593,28029.239583333332
Rosé Gran Cuvée Especial 2018,Spain,Navarra,Pago de Cirsus,3.6,56,9.9,2018,42.6125488,-1.8307877,12.848286310831705,7.0818227132161455,18.951427777608234,1.4764515956242878,38761.120442708336,21.26291783650716,15.647556940714518,27.904133478800457,1.1720430254936218,43558.579427083336,13.239756266276041,8.52795155843099,18.821266174316406,1.047885278860728,28839.788411458332
Nero d'Avola Rosato 2017,Italy,Terre Siciliane,Barone Montalto,3.2,56,5.1,2017,42.83333,12.83333,10.722898642222086,5.86231009165446,15.431844075520834,3.4023298422495523,37039.225260416664,20.540043512980144,15.151037534077963,25.571807861328125,1.8716487884521484,44752.73046875,12.706296602884928,8.526951471964518,17.286306381225586,2.7554479837417603,29883.887369791668
Rosato 2018,Italy,Terre Siciliane,Feudo Arancio,3.6,56,6.5,2018,42.83333,12.83333,10.693307558695475,4.006231149037679,16.70938523610433,1.9894982973734539,39602.078125,22.46411387125651,15.005531946818033,28.969994227091473,0.9702867070833842,47036.95703125,11.305813312530518,5.773005247116089,16.654420534769695,3.3380644718805947,30682.592447916668
Cabernet Sauvignon Rosado 2019,Spain,Somontano,Enate,3.9,56,8.04,2019,42.0883878,0.0994041,12.084681193033854,6.568846066792806,17.682859738667805,3.307096799214681,36242.996744791664,23.98155975341797,17.87298520406087,30.35583432515462,1.5282437553008397,45606.619791666664,15.315549532572428,10.744795640309652,20.70031483968099,3.3403584162394204,30083.625651041668
Zinfandel White 2016,United States,California,Canyon Road,3.3,56,5.95,2016,36.7014631,-118.755997,1.6037400762240093,-3.989691734313965,7.928874174753825,1.6002866725126903,41919.903645833336,12.171233177185059,6.0708818435668945,18.274125417073567,2.1407527029514313,46240.259114583336,4.2598347663879395,-1.2773083845774333,11.063122351964315,1.2507168799638748,36096.238932291664
Cerasuolo d'Abruzzo Rosé (Unico) 2019,Italy,Cerasuolo d'Abruzzo,Tenuta Ulisse,3.6,57,8.9,2019,42.83333,12.83333,10.944860617319742,5.61612343788147,15.99802335103353,4.016845901807149,32957.818359375,20.684879302978516,13.892772356669107,26.438435236612957,1.5591397881507874,46079.90234375,13.052374521891275,7.969582398732503,18.79178587595622,3.1346237659454346,29003.87109375
Château Vignelaure Rosé 2019,France,Coteaux d'Aix-en-Provence,Château Vignelaure,3.7,57,13.55,2019,43.5276676,5.4063971,13.4763765335083,8.845786571502686,18.62938912709554,3.0004658699035645,35290.23046875,24.2915465037028,18.605302174886067,30.023366292317707,1.4788889586925507,45195.40625,16.309726397196453,12.08406670888265,21.28634198506673,3.8396415213743844,29222.085286458332
L'Origine Côtes de Provence Rosé 2018,France,Côtes de Provence,Château de l'Aumerade,3.3,57,11.02,2018,43.4370505,6.652775,14.916397094726562,9.450949827829996,20.454103469848633,1.6874193747838337,39301.10546875,25.4428513844808,19.726971944173176,31.13584327697754,0.20200716083248457,47460.454427083336,15.911219278971354,11.008405208587646,21.98125457763672,0.8070967607200146,33187.498697916664
Tavel 2019,France,Tavel,E. Guigal,3.7,57,11.6,2019,44.0127055,4.6982216,13.565749168395996,9.324508825937906,18.3530216217041,4.655268748601277,34069.654947916664,24.38908322652181,19.44054921468099,29.63157018025716,1.5373475054899852,45495.885416666664,15.96893056233724,12.250888506571451,20.37110424041748,4.788638055324554,28250.982421875
V Rosado 2018,Spain,Rioja,Bodegas Faustino,3.3,57,5.49,2018,42.3285528,-2.4674917,10.798688570658365,5.430378119150798,16.707546552022297,2.0327240228652954,37035.34375,18.887142181396484,13.461686452229818,25.38217035929362,1.9408960739771526,39642.9765625,11.33245054880778,7.236829837163289,16.273496945699055,1.49433700243632,28008.844401041668
Alìe Rosé Toscana 2019,Italy,Toscana,Tenuta Ammiraglia,4.1,57,12.12,2019,43.4586541,11.1389204,13.996342341105143,9.63066816329956,18.923661549886067,3.793333371480306,32707.034505208332,24.509926478068035,19.067066192626953,30.203266779581707,0.9437634547551473,46268.493489583336,16.94045861562093,12.712478637695312,22.170345306396484,2.4328675071398416,30088.462239583332
Rosé 2018,South Africa,Stellenbosch,Welmoed,3.2,58,7.36,2018,-33.934444,18.869167,18.55008538564046,13.323729515075684,25.585395177205402,0.3489964008331299,34884.748046875,11.817153930664062,7.136327743530273,17.1436030069987,1.8708603382110596,28644.14453125,15.883392016092936,10.516579310099283,21.98568344116211,0.9923297762870789,38180.127604166664
Twenty Twelve Pink 2018,Spain,Plà i Llevant,Es Fangar,3.7,58,35.1,2018,39.7710681,3.3609527,15.187678972880045,12.422263145446777,17.961977005004883,0.8343010147412618,41355.673177083336,23.981245676676433,21.63307062784831,26.666117350260418,0.7376344203948975,46358.665364583336,18.140491167704266,15.708266894022623,20.711655298868816,1.873548408349355,31382.696614583332
GB Spätburgunder Rosé 2019,Germany,Rheingau,Georg Breuer,3.7,59,9.26,2019,50.1339394,8.0701591,10.071676015853882,5.783634761969249,14.3677929242452,2.1287454764048257,34484.149088541664,19.292821884155273,14.451376914978027,23.873204549153645,1.542401393254598,43252.524739583336,10.456207275390625,7.088688691457112,14.219638347625732,1.050501823425293,23999.269205729168
Rioja Tempranillo Rosado 2018,Spain,Rioja,Antaño,3.1,59,4.25,2018,42.3285528,-2.4674917,10.798688570658365,5.430378119150798,16.707546552022297,2.0327240228652954,37035.34375,18.887142181396484,13.461686452229818,25.38217035929362,1.9408960739771526,39642.9765625,11.33245054880778,7.236829837163289,16.273496945699055,1.49433700243632,28008.844401041668
Les Clans Rosé 2018,France,Côtes de Provence,Château d'Esclans,4.4,59,54.0,2018,43.4370505,6.652775,14.916397094726562,9.450949827829996,20.454103469848633,1.6874193747838337,39301.10546875,25.4428513844808,19.726971944173176,31.13584327697754,0.20200716083248457,47460.454427083336,15.911219278971354,11.008405208587646,21.98125457763672,0.8070967607200146,33187.498697916664
Merlot Rosé 2018,France,Pays d'Oc,Fortant,3.4,59,6.55,2018,43.604764,1.4540399,13.394906997680664,8.186907132466635,18.934899012247723,2.768924832344055,35450.902994791664,22.377317428588867,17.504845937093098,27.690669377644856,1.7183512846628826,38490.891927083336,13.498746395111084,9.271673997243246,18.344809850056965,1.2198566993077595,26977.379557291668
Rosat 2018,Spain,Pla de Bages,Abadal,3.3,60,7.31,2018,41.7785429,1.8904077,14.838553428649902,8.599561055501303,21.71954409281413,1.7348028421401978,40371.4140625,25.11769421895345,19.49171257019043,31.734364191691082,1.4969892501831055,45623.49609375,15.1262788772583,10.577356497446695,21.35558319091797,1.244336910545826,32071.309244791668
Pinot Grigio Blush 2019,Italy,delle Venezie,Cielo e Terra,4.1,60,6.16,2019,45.3485187,11.9571797,13.959400494893393,9.636971553166708,18.498585383097332,3.219928503036499,32604.473307291668,24.516276677449543,19.77514394124349,29.0690860748291,2.477598547935486,44455.684895833336,16.049633979797363,12.51991049448649,20.27301088968913,3.1112188498179116,27199.89453125
Bandol Rosé 2019,France,Bandol,La Suffrene,3.8,60,15.5,2019,43.1357717,5.7523647,14.447850227355957,11.128990968068441,17.642932573954266,3.906953493754069,35110.595052083336,24.2139949798584,20.219187418619793,27.64655367533366,1.0518279075622559,44950.359375,18.15673891703288,15.182772000630697,21.311285654703777,5.63777760664622,29509.999348958332
Domaene Gobelsburg Rosé 2019,Austria,Niederösterreich,Schloss Gobelsburg,3.7,61,7.96,2019,48.2817813,15.7632457,11.404049475987753,6.188856681187947,16.532010237375896,1.3431541522343953,34718.966796875,20.97071711222331,15.86790657043457,26.004859288533527,2.3764516115188603,41484.588541666664,11.585113366444906,7.544716835021973,16.058444341023762,2.0450538396835327,24637.1787109375
Château de Selle Rosé (Coeur de Grain) 2019,France,Côtes de Provence,Domaines Ott,4.2,61,35.9,2019,43.4370505,6.652775,14.172517458597818,9.440376281738281,18.81331475575765,3.2251970767974854,34775.134765625,25.250930786132812,19.404856363932293,30.425662994384766,1.240215043226878,45667.513020833336,17.593576113382976,13.263979276021322,22.038387298583984,5.715053786834081,28940.379557291668
Zinfandel White 2018,United States,California,Canyon Road,3.4,62,6.21,2018,36.7014631,-118.755997,0.5629185835520426,-3.7736665407816568,6.213878154754639,2.5782436529795327,40607.654947916664,13.631827036539713,7.72972043355306,19.842230478922527,1.1174551645914714,47027.428385416664,5.913620829582214,1.0169426600138347,11.951405048370361,1.7365589886903763,36116.457682291664
Blanc de Noir 2018,South Africa,Constantia,Buitenverwachting,3.6,62,8.56,2018,-34.0283333,18.4155556,17.79658540089925,13.902462323506674,22.824469248453777,0.32469532887140906,34754.904947916664,12.413077036539713,9.279827435811361,15.68156623840332,2.0164875189463296,29128.6171875,15.244837443033854,11.816960652669271,19.155276616414387,1.3708960215250652,37974.842447916664
Rosé vom Spätburgunder 2018,Germany,Baden,Salwey,3.9,63,9.95,2018,53.0023496,9.0820955,9.482292970021566,5.138349692026774,13.77886931101481,1.817813555399577,30098.161458333332,17.1410706837972,12.99406655629476,21.24080530802409,3.5750180085500083,33300.302734375,10.664391358693441,7.943044821421306,13.525033632914225,2.854982058207194,16811.226399739582
Kleine Rust Pinotage Rosé 2019,South Africa,Stellenbosch,Stellenrust,3.7,63,5.76,2019,-33.934444,18.869167,17.679622968037922,12.825216929117838,23.952044169108074,1.5060215542713802,33101.468098958336,12.31740697224935,7.907206058502197,17.490377108256023,2.8732616901397705,28255.05078125,16.432318369547527,10.980485916137695,22.804229736328125,1.0185662508010864,40138.272135416664
Garnacha Rosado 2018,Spain,Navarra,Bodegas Príncipe de Viana,3.4,64,5.9,2018,42.6125488,-1.8307877,12.848286310831705,7.0818227132161455,18.951427777608234,1.4764515956242878,38761.120442708336,21.26291783650716,15.647556940714518,27.904133478800457,1.1720430254936218,43558.579427083336,13.239756266276041,8.52795155843099,18.821266174316406,1.047885278860728,28839.788411458332
Lumare 2019,Italy,Calabria,Tenuta Iuzzolini,4.1,65,8.72,2019,39.0565974,16.5249864,9.662581125895182,6.100066343943278,13.422557830810547,3.118279536565145,37277.529947916664,17.501550992329914,13.712002118428549,21.60300572713216,3.638637979825338,44760.893229166664,11.803928216298422,8.9404247601827,15.450424512227379,4.815985719362895,30580.80078125
Rosé La Chevalière 2019,France,Provence,Laroche,3.7,66,7.89,2019,44.0580563,6.0638506,10.510457356770834,5.099810063838959,16.079524040222168,4.390251000722249,35418.541666666664,21.427655537923176,15.065402348836264,27.567319869995117,1.1817921102046967,45000.858072916664,13.694000879923502,8.619720617930094,19.412157376607258,3.504265214006106,29244.534505208332
Mythique Languedoc Rosé 2017,France,Languedoc,Val d'Orbieu,3.5,66,6.86,2017,43.6796869,1.3966515,11.984317461649576,7.586466471354167,16.530229250590008,2.40659507115682,33368.1796875,21.985955556233723,16.792236646016438,27.223186492919922,1.1335125366846721,42002.920572916664,15.593462944030762,11.417326291402182,20.231035550435383,1.8916129271189372,27839.934244791668
The Long Walk Pinotage Rosé 2019,South Africa,Western Cape,Footprint,3.6,67,5.95,2019,-33.546977,20.72753,16.783308664957683,11.353095054626465,24.092073440551758,0.48978492617607117,33064.50390625,10.956126848856607,5.29522720972697,17.86291567484538,0.5084229310353597,30441.649088541668,16.269717852274578,9.2468581199646,24.539976755777996,0.6114337146282196,39196.901041666664
Rosa dei Masi delle Venezie 2019,Italy,delle Venezie,Masi,3.6,68,10.99,2019,45.3485187,11.9571797,13.959400494893393,9.636971553166708,18.498585383097332,3.219928503036499,32604.473307291668,24.516276677449543,19.77514394124349,29.0690860748291,2.477598547935486,44455.684895833336,16.049633979797363,12.51991049448649,20.27301088968913,3.1112188498179116,27199.89453125
Harmonie De Gascogne Rosé 2019,France,Côtes de Gascogne,Domaine de Pellehaut,4.0,69,5.79,2019,48.510283,-2.787756,9.933663527170816,6.9738874435424805,12.965697606404623,2.042903184890747,30582.91015625,17.201978365580242,14.11813481648763,20.15940793355306,1.479605793952942,39329.657552083336,12.59533723195394,9.730320930480957,15.752346356709799,1.858243743578593,26877.354166666668
Château Romassan Rosé (Coeur de Grain) 2019,France,Bandol,Domaines Ott,4.2,69,29.15,2019,43.1357717,5.7523647,14.447850227355957,11.128990968068441,17.642932573954266,3.906953493754069,35110.595052083336,24.2139949798584,20.219187418619793,27.64655367533366,1.0518279075622559,44950.359375,18.15673891703288,15.182772000630697,21.311285654703777,5.63777760664622,29509.999348958332
Pinot Noir Trocken Rosé 2019,Germany,Rheingau,Künstler,3.8,69,12.19,2019,50.1339394,8.0701591,10.071676015853882,5.783634761969249,14.3677929242452,2.1287454764048257,34484.149088541664,19.292821884155273,14.451376914978027,23.873204549153645,1.542401393254598,43252.524739583336,10.456207275390625,7.088688691457112,14.219638347625732,1.050501823425293,23999.269205729168
White Zinfandel 2018,United States,California,Barefoot,3.3,70,6.0,2018,36.7014631,-118.755997,0.5629185835520426,-3.7736665407816568,6.213878154754639,2.5782436529795327,40607.654947916664,13.631827036539713,7.72972043355306,19.842230478922527,1.1174551645914714,47027.428385416664,5.913620829582214,1.0169426600138347,11.951405048370361,1.7365589886903763,36116.457682291664
Bardolino Chiaretto 2019,Italy,Bardolino,Zenato,3.4,70,5.45,2019,45.5475595,10.7242145,13.786392052968344,10.096198717753092,17.61297384897868,3.831003506978353,31742.863932291668,24.33410580952962,20.728905359903973,27.615214029947918,3.034480253855387,44313.166666666664,16.70418866475423,13.822829246520996,19.648546536763508,2.877096732457479,28358.044270833332
Rosato di Toscana Sbrancato 2016,Italy,Toscana,Tenuta Il Poggione,3.7,71,10.99,2016,43.4586541,11.1389204,13.005919456481934,7.387716929117839,18.138576825459797,2.432473103205363,36169.813151041664,24.43708101908366,18.3974666595459,30.050315221150715,0.8447670713067055,46399.984375,14.808763186136881,10.538272062937418,19.1765349706014,3.2317922512690225,29885.837890625
Rosado 2019,Spain,Rioja,Cune (CVNE),3.3,71,7.6,2019,42.3285528,-2.4674917,8.700752894083658,4.600234667460124,13.438156127929688,3.5468817551930747,31272.651692708332,17.94526958465576,13.02480443318685,23.624284744262695,2.0061290661493936,42316.07421875,12.191380182902018,7.9817938804626465,17.324589411417644,2.0297850370407104,29259.714192708332
Château de Berne Rosé 2018,France,Côtes de Provence,Château de Berne,4.0,72,20.96,2018,43.4370505,6.652775,14.916397094726562,9.450949827829996,20.454103469848633,1.6874193747838337,39301.10546875,25.4428513844808,19.726971944173176,31.13584327697754,0.20200716083248457,47460.454427083336,15.911219278971354,11.008405208587646,21.98125457763672,0.8070967607200146,33187.498697916664
Côtes de Provence Rosé 2019,France,Côtes de Provence,Marchandise,4.2,72,11.6,2019,43.4370505,6.652775,14.172517458597818,9.440376281738281,18.81331475575765,3.2251970767974854,34775.134765625,25.250930786132812,19.404856363932293,30.425662994384766,1.240215043226878,45667.513020833336,17.593576113382976,13.263979276021322,22.038387298583984,5.715053786834081,28940.379557291668
Pétale de Rosé 2019,France,Côtes de Provence,Château La Tour de l'Évêque,3.6,73,15.9,2019,43.4370505,6.652775,14.172517458597818,9.440376281738281,18.81331475575765,3.2251970767974854,34775.134765625,25.250930786132812,19.404856363932293,30.425662994384766,1.240215043226878,45667.513020833336,17.593576113382976,13.263979276021322,22.038387298583984,5.715053786834081,28940.379557291668
Sancerre Rosé 2014,France,Sancerre,Pascal Jolivet,3.8,73,18.75,2014,47.3306906,2.8390454,7.978843530019124,4.004562695821126,11.85664176940918,3.137992779413859,27284.852864583332,18.68472417195638,13.753971099853516,23.306963602701824,1.092258056004842,40902.295572916664,11.583250045776367,8.349544843037924,14.841158231099447,3.173870881398519,20625.587565104168
Malbec Rosé 2018,Argentina,Mendoza,Andeluna,3.7,73,7.5,2018,-34.787093,-68.4381868,15.742017110188803,11.356046517690023,20.65828577677409,1.372078945239385,30742.573567708332,9.445556640625,4.073394298553467,15.896583557128906,0.7458781202634176,30469.663411458332,16.63435713450114,10.288017749786377,23.44690704345703,0.9460214773813883,39536.154947916664
Santa Digna Reserva Cabernet Sauvignon Rosé 2019,Chile,Central Valley,Miguel Torres,3.5,74,6.79,2019,-36.0,-72.0,13.025256792704264,8.371462345123291,19.518792470296223,1.8640502293904622,30733.96875,7.053719838460286,3.277860244115194,12.185297648111979,2.6586380004882812,21996.675130208332,12.125384012858072,7.199401378631592,18.05203628540039,2.481648882230123,35833.748046875
Bardolino Chiaretto Classico 2019,Italy,Bardolino,Lenotti,3.8,76,4.83,2019,45.5475595,10.7242145,13.786392052968344,10.096198717753092,17.61297384897868,3.831003506978353,31742.863932291668,24.33410580952962,20.728905359903973,27.615214029947918,3.034480253855387,44313.166666666664,16.70418866475423,13.822829246520996,19.648546536763508,2.877096732457479,28358.044270833332
Bandol Rosé 2017,France,Bandol,Château Pradeaux,4.1,77,19.95,2017,43.1357717,5.7523647,13.829747200012207,10.415684700012207,17.311849276224773,0.9892473022143046,39095.807291666664,23.203744888305664,19.412817637125652,26.97136624654134,0.584551990032196,47242.473958333336,17.343867301940918,14.388713200887045,20.335739135742184,3.083405057589213,31011.845703125
Tavel Rosé 2019,France,Tavel,Château d'Aqueria,3.8,77,15.42,2019,44.0127055,4.6982216,13.565749168395996,9.324508825937906,18.3530216217041,4.655268748601277,34069.654947916664,24.38908322652181,19.44054921468099,29.63157018025716,1.5373475054899852,45495.885416666664,15.96893056233724,12.250888506571451,20.37110424041748,4.788638055324554,28250.982421875
Rosato 2019,Italy,Terre Siciliane,Feudo Arancio,3.8,78,6.3,2019,42.83333,12.83333,10.944860617319742,5.61612343788147,15.99802335103353,4.016845901807149,32957.818359375,20.684879302978516,13.892772356669107,26.438435236612957,1.5591397881507874,46079.90234375,13.052374521891275,7.969582398732503,18.79178587595622,3.1346237659454346,29003.87109375
Infinito Rosé 2018,Italy,Bardolino Chiaretto,Santi,3.8,78,6.8,2018,42.71231,13.78745,13.298408508300781,7.949888865152995,18.461179733276367,2.445985476175944,40177.192708333336,24.360387802124023,18.304566701253254,29.906716028849285,0.39258064577976864,47554.875,14.562543551127115,9.84650150934855,19.38879458109538,3.6469531853993735,30947.531901041668
Rosado 2019,Spain,Rioja Alavesa,El Coto,3.5,79,4.9,2019,42.544151,-2.5454224,10.260552565256754,6.15715765953064,15.15613587697347,2.9029032389322915,31735.298828125,19.93525505065918,14.584433237711588,26.311655680338543,0.9001792172590891,43925.48046875,13.79225222269694,9.692283153533936,19.170741081237793,1.791218678156535,29427.631510416668
Tellus Rosé di Syrah 2017,Italy,Lazio,Falesco,3.7,80,7.9,2017,41.9808038,12.7662312,14.023748079935709,8.570507049560547,19.249736150105793,1.8616129159927368,39611.1796875,24.217109044392902,17.923230806986492,30.157676060994465,0.46261649827162427,46243.130208333336,16.226691881815594,11.664485454559326,21.136977513631184,3.6556273301442466,30372.033203125
Rosè 2017,Romania,Murfatlar,Alira,3.8,81,10.5,2017,44.1742796,28.4107956,12.844635327657064,8.456788380940754,17.277845700581867,1.908207933108012,35044.703776041664,23.641712824503582,19.063329060872395,28.00187810262044,1.2417562901973724,47067.3359375,13.057682355244955,9.385050296783447,16.80596383412679,1.5020787715911865,25901.870442708332
Belvento Velarosa Toscana (I Vini Del Mare) 2018,Italy,Toscana,Petra,3.5,81,11.92,2018,43.4586541,11.1389204,14.597834587097168,9.299073855082193,20.345221201578777,1.255770564079285,39481.677083333336,25.264576594034832,19.118481318155926,31.773141225179035,0.6455913980801901,47021.329427083336,14.886561075846354,10.680579026540121,19.987460136413574,3.142437160015106,30773.384114583332
Bordeaux Rosé 2018,France,Bordeaux,Mouton Cadet,3.3,82,9.6,2018,44.841225,-0.5800364,13.780194600423178,8.715819040934244,19.22327486673991,2.1829391519228616,35381.4375,21.588338216145832,16.73191261291504,26.97784487406413,2.086200733979543,37932.76953125,14.133585294087728,10.01386547088623,19.062199592590332,1.5200000603993733,28222.580729166668
Albia Toscana Rosé 2019,Italy,Toscana,Ricasoli,3.6,82,8.9,2019,43.4586541,11.1389204,13.996342341105143,9.63066816329956,18.923661549886067,3.793333371480306,32707.034505208332,24.509926478068035,19.067066192626953,30.203266779581707,0.9437634547551473,46268.493489583336,16.94045861562093,12.712478637695312,22.170345306396484,2.4328675071398416,30088.462239583332
Sancerre Rosé 2018,France,Sancerre,Michel Thomas & Fils,3.8,82,14.72,2018,47.3306906,2.8390454,10.67868423461914,6.082781632741292,15.344770431518555,2.177706162134806,32726.05859375,19.235559463500977,14.473139127095541,23.77450116475423,2.2621146043141684,37958.786458333336,10.964846134185791,7.4517777760823565,14.645254135131836,1.4608244101206462,22641.633463541668
Luces Tempranillo - Merlot - Syrah Rosado 2019,Spain,Somontano,Viñas del Vero,3.5,82,5.79,2019,42.0883878,0.0994041,12.084681193033854,6.568846066792806,17.682859738667805,3.307096799214681,36242.996744791664,23.98155975341797,17.87298520406087,30.35583432515462,1.5282437553008397,45606.619791666664,15.315549532572428,10.744795640309652,20.70031483968099,3.3403584162394204,30083.625651041668
Rosato 2017,Italy,Salento,Cantina Rosa del Golfo,3.6,82,12.9,2017,40.248604,15.190058,12.708836237589518,8.341877937316895,16.922810236612957,4.055555502573649,38120.436197916664,21.858082453409832,17.21634070078532,26.28384844462077,0.9139068126678467,46116.079427083336,15.361099243164062,11.875354766845703,19.17791684468587,4.997814019521077,31171.383463541668
Rosé Fleuri 2019,France,Coteaux d'Aix-en-Provence,Château Barbebelle,3.9,83,8.9,2019,43.5276676,5.4063971,13.4763765335083,8.845786571502686,18.62938912709554,3.0004658699035645,35290.23046875,24.2915465037028,18.605302174886067,30.023366292317707,1.4788889586925507,45195.40625,16.309726397196453,12.08406670888265,21.28634198506673,3.8396415213743844,29222.085286458332
Côtes de Provence Rosé 2017,France,Côtes de Provence,Château des Sarrins,3.8,83,13.6,2017,43.4370505,6.652775,14.163895606994629,9.858582337697348,18.2557160059611,0.9791039427121481,39438.692708333336,24.203798294067383,19.662973403930664,28.32454999287923,0.3964157948891322,47256.888020833336,17.28427855173747,13.843671798706055,20.57060782114665,3.5204301675160727,30518.247395833332
Côtes de Provence Rosé 2016,France,Côtes de Provence,Domaine Pinchinat,3.7,83,13.3,2016,43.4370505,6.652775,14.813271204630533,10.586646556854246,18.788779894510906,1.3974909683068593,39639.934895833336,24.87413787841797,20.551790873209637,28.590033849080402,0.7113261839064459,47084.045572916664,16.63839276631673,13.203421274820963,20.19338544209798,2.2456990480422974,30752.223958333332
Amstramgram Grande Cuvée Cérès 2018,France,Languedoc,Calmel & Joseph,4.0,83,7.75,2018,43.6796869,1.3966515,13.542388916015625,8.288139661153158,19.145344416300457,2.790035843849182,35105.281901041664,22.47248077392578,17.608444849650066,27.81518300374349,1.809283177057902,37921.236979166664,13.687856356302897,9.449430465698242,18.574663480122883,1.1632616718610127,26909.650390625
Solidarity Rosé 2019,Spain,Cariñena,Bodegas Care,3.9,84,5.7,2019,41.3382122,-1.2263149,11.722490310668945,7.160684903462728,17.070666631062824,2.833082636197408,34525.237630208336,22.876401901245117,16.765164375305176,29.325737635294598,0.5354480346043905,45868.010416666664,14.917977333068848,10.655702749888102,19.840343793233234,1.8508602778116863,30729.860026041668
Velue Rosé Cabernet 2018,Austria,Weinviertel,Johannes Zillinger,4.0,84,7.6,2018,48.4968419,16.334688,10.68143860499064,5.7410984834035235,15.50454012552897,1.657526930173238,32553.2109375,21.375587463378906,15.897622108459473,26.565202713012695,1.2885663310686748,42609.514322916664,10.058994928995768,6.844879786173503,13.761868476867676,2.2207526763280234,20530.596028645832
El Viaje de Ramón Garnacha 2019,Spain,Rioja,Ramón Bilbao,3.7,86,6.75,2019,42.3285528,-2.4674917,8.700752894083658,4.600234667460124,13.438156127929688,3.5468817551930747,31272.651692708332,17.94526958465576,13.02480443318685,23.624284744262695,2.0061290661493936,42316.07421875,12.191380182902018,7.9817938804626465,17.324589411417644,2.0297850370407104,29259.714192708332
Bordeaux Rosé 2018,France,Bordeaux,Château Landonnet,3.2,87,8.78,2018,44.841225,-0.5800364,13.780194600423178,8.715819040934244,19.22327486673991,2.1829391519228616,35381.4375,21.588338216145832,16.73191261291504,26.97784487406413,2.086200733979543,37932.76953125,14.133585294087728,10.01386547088623,19.062199592590332,1.5200000603993733,28222.580729166668
Mabilia Cirò Rosé 2018,Italy,Cirò,Ippolito 1845,3.7,87,9.5,2018,39.381732,17.0613529,14.671219825744629,10.418455123901367,18.992488861083984,1.2096057136853535,40097.932291666664,26.935623168945312,21.91202227274577,31.418402353922527,0.22204301009575525,47417.903645833336,16.050991694132488,12.613312085469564,19.90467421213786,3.2454839944839478,31853.294270833332
Brut Rosé (Chardonnay - Pinot Noir) 2014,South Africa,Robertson,Graham Beck,3.8,87,19.9,2014,-33.802222,19.883611,18.546603838602703,12.634695370992025,25.619086583455402,0.6864157716433207,34596.873046875,12.093891461690268,6.71709680557251,17.948404947916668,1.262078881263733,30769.067708333332,16.44733206431071,10.844104131062826,23.01222292582194,1.7497132817904155,39644.86328125
Finca Wolffer Rosé 2019,Argentina,Mendoza,Wölffer Estate,3.9,89,14.9,2019,-34.787093,-68.4381868,16.912457784016926,11.714128812154135,22.767981211344402,0.42204302549362177,34387.390625,8.199438571929932,2.4912796020507812,14.623268445332846,0.2387455180287361,29205.819661458332,17.420844713846844,11.303107579549154,23.9665470123291,1.151326169570287,39076.729166666664
Conde de Valdemar Rosado 2018,Spain,Rioja,Bodegas Valdemar,3.7,89,5.8,2018,42.3285528,-2.4674917,10.798688570658365,5.430378119150798,16.707546552022297,2.0327240228652954,37035.34375,18.887142181396484,13.461686452229818,25.38217035929362,1.9408960739771526,39642.9765625,11.33245054880778,7.236829837163289,16.273496945699055,1.49433700243632,28008.844401041668
Héritage Côtes de Provence Rosé 2019,France,Provence,Estandon,3.7,90,9.85,2019,44.0580563,6.0638506,10.510457356770834,5.099810063838959,16.079524040222168,4.390251000722249,35418.541666666664,21.427655537923176,15.065402348836264,27.567319869995117,1.1817921102046967,45000.858072916664,13.694000879923502,8.619720617930094,19.412157376607258,3.504265214006106,29244.534505208332
Le Rosé 2019,France,Pays d'Oc,Paul Mas,3.7,90,7.19,2019,43.604764,1.4540399,12.48267904917399,8.268017768859863,17.020436604817707,3.188566287358602,30752.929036458332,22.576364517211914,16.94946797688802,28.004109700520832,1.5693190097808838,42478.255208333336,15.601071039835611,11.203662872314453,20.54557991027832,1.9136560211579006,29236.901041666668
Rosado (Tempranillo) 2018,Spain,La Mancha,Viña San Juan,3.7,91,5.75,2018,28.3774367,-16.6977504,19.17568524678548,16.703694025675457,21.887510935465496,0.41767025490601856,42135.100260416664,24.200908025105793,21.734411239624023,27.291453043619793,0.1546953444679578,44142.723958333336,22.51909828186035,20.26396306355794,25.147403081258137,0.37670249740282696,36153.1484375
Bandol Rosé 2016,France,Bandol,Domaine de la Tour du Bon,3.7,92,38.01,2016,43.1357717,5.7523647,14.26790968577067,10.661168734232584,17.72082773844401,1.1817562480767567,39472.237630208336,24.390180587768555,20.485864003499348,28.028067270914715,0.5317562744021416,47242.876302083336,16.556923866271973,13.763121922810873,19.528552373250324,1.8882436951001484,31957.169270833332
Rose de Nymphe Emue 2019,France,Minervois,Château Maris,3.9,95,8.72,2019,43.2718,2.52099,13.111928304036459,9.20569896697998,17.478010495503742,3.937204360961914,32926.873046875,24.025654474894207,18.612043380737305,29.434443791707356,1.4015054901440938,45285.177083333336,16.480056762695312,12.784461975097656,20.7347313563029,4.436021665732066,26886.356770833332
3055 Rosé 2018,Spain,Penedès,Jean Leon,3.8,95,13.37,2018,41.3463825,1.6995213,14.150745073954264,9.34459670384725,19.68886121114095,1.4262365698814392,40211.1328125,23.619956334431965,19.03285789489746,28.68950653076172,1.2202509045600891,45974.63671875,15.487829526265463,11.6358691851298,20.512680053710938,1.6816129634777706,31374.13671875
Clos Beylesse Côtes de Provence Rosé 2018,France,Côtes de Provence,Domaine de l'Abbaye,4.3,96,45.0,2018,43.4370505,6.652775,14.916397094726562,9.450949827829996,20.454103469848633,1.6874193747838337,39301.10546875,25.4428513844808,19.726971944173176,31.13584327697754,0.20200716083248457,47460.454427083336,15.911219278971354,11.008405208587646,21.98125457763672,0.8070967607200146,33187.498697916664
Rosé de Provence 2018,France,Coteaux Varois en Provence,Fortant,3.9,96,8.2,2018,47.283531,0.303704,12.686524709065756,8.057607491811117,17.408432324727375,1.5416488250096638,32985.217447916664,20.918852488199867,15.864274660746256,25.940422058105465,1.5338709354400635,37793.283854166664,12.945025761922201,9.438270568847656,16.735923449198406,1.486666738986969,23312.1171875
Mas Donis Rosat Montsant 2018,Spain,Montsant,Capçanes,3.5,97,6.95,2018,41.1171253,1.211005,15.603634198506674,11.561022758483887,19.843478520711262,1.2978136738141377,41117.48046875,24.8489990234375,21.262654622395832,28.461400349934895,0.7724731465180715,46007.947916666664,17.799604098002117,14.058048566182455,22.114769617716473,1.6536916693051655,32690.619791666668
Rosé Messwein 2018,Austria,Niederösterreich,Stift Gœttweig,3.9,97,9.9,2018,48.2817813,15.7632457,10.259109179178873,5.448014497756958,15.092010498046875,2.0010035832722983,33195.052083333336,20.94978968302409,15.453192710876465,26.388210932413738,1.981433629989624,42376.115885416664,10.061713377634684,6.908301035563151,13.866903146107992,2.3146236737569175,20972.9296875
Kadette Pinotage Rosé 2019,South Africa,Stellenbosch,Kanonkop,3.5,98,7.9,2019,-33.934444,18.869167,17.679622968037922,12.825216929117838,23.952044169108074,1.5060215542713802,33101.468098958336,12.31740697224935,7.907206058502197,17.490377108256023,2.8732616901397705,28255.05078125,16.432318369547527,10.980485916137695,22.804229736328125,1.0185662508010864,40138.272135416664
Grézan Expression Faugères Rosé 2017,France,Faugères,Famille Cros Pujol,3.7,99,9.95,2017,43.5648186,3.1901144,10.920520941416422,7.078007062276204,15.007253964742025,2.773189981778463,36990.766927083336,21.310335159301758,16.206501324971516,26.412630716959637,0.4563082605600357,46707.489583333336,14.485801696777344,10.69433307647705,18.589834531148274,5.160860379536946,30798.776041666668
Rosé 2018,Austria,Niederösterreich,Loimer,3.6,99,8.24,2018,48.2817813,15.7632457,10.259109179178873,5.448014497756958,15.092010498046875,2.0010035832722983,33195.052083333336,20.94978968302409,15.453192710876465,26.388210932413738,1.981433629989624,42376.115885416664,10.061713377634684,6.908301035563151,13.866903146107992,2.3146236737569175,20972.9296875
No. 6 Rosé 2018,France,Côtes de Gascogne,Uby,4.0,100,6.49,2018,48.510283,-2.787756,10.830245971679688,7.491360346476237,14.16401227315267,2.0186379750569663,33389.576822916664,16.635660807291668,13.647382100423178,19.719694137573242,1.8928674062093098,36245.385416666664,12.625875155131022,10.066432158152262,15.242311159769693,2.265913963317871,20913.251302083332
Bardolino Chiaretto 2017,Italy,Bardolino Chiaretto,Gorgo,3.6,101,7.9,2017,42.71231,13.78745,12.848498026529947,8.30354102452596,16.783308347066242,3.06071670850118,37853.834635416664,21.984949111938477,16.901480356852215,25.84839693705241,2.7983513673146567,45215.139322916664,14.444887161254883,10.511910120646158,18.22881031036377,2.5963083108266196,29859.809895833332
Pitt Nat 2019,Austria,Neusiedlersee,Pittnauer,4.1,102,18.06,2019,47.8030761,16.6469854,12.310550053914389,7.850953618685405,16.803139845530193,1.4432257811228435,34626.188151041664,22.179718653361004,17.885971069335938,26.636132558186848,1.584838628768921,42847.9453125,12.727943261464437,9.57563066482544,16.42405414581299,2.352509021759033,25491.638346354168
Idea Rosa di Primitivo 2018,Italy,Veneto,Varvaglione,3.5,102,8.5,2018,45.6476663,11.8665254,13.534445762634277,8.420368830362955,18.756372451782227,2.25566303730011,36654.1171875,24.109180450439453,18.923450469970703,29.23906071980794,2.555734713872274,45359.55859375,12.762991110483805,8.843899567921957,17.06339740753174,3.715161224206289,26310.147786458332
Terroir du Trias Delille Vigneron Bandol Rosé 2018,France,Bandol,Domaine de Terrebrune,4.0,105,25.9,2018,43.1357717,5.7523647,15.051822026570639,11.155926704406738,18.653202692667644,2.105555613835653,39598.341145833336,24.270482381184895,20.20823796590169,28.021427790323894,0.04261648965378597,47462.908854166664,16.27176856994629,12.707969347635904,20.12556807200114,0.6659139320254326,33134.513671875
Rosa & Dito Bobal 2019,Spain,Utiel-Requena,Coviñas,3.8,106,4.84,2019,39.5492854,-1.2511657,11.333783467610678,6.816272576649983,16.49435520172119,2.0497849384943643,35321.71484375,22.630831400553387,16.75623671213786,29.367956797281902,0.5944086412588755,45252.272135416664,14.17469596862793,10.182778199513754,18.984068234761555,1.7333691517512004,29995.564453125
Chardonnay - Pinot Noir 2019,South Africa,Western Cape,Leopard’s Leap,3.7,108,7.75,2019,-33.546977,20.72753,16.783308664957683,11.353095054626465,24.092073440551758,0.48978492617607117,33064.50390625,10.956126848856607,5.29522720972697,17.86291567484538,0.5084229310353597,30441.649088541668,16.269717852274578,9.2468581199646,24.539976755777996,0.6114337146282196,39196.901041666664
Rioja Rosado 2018,Spain,Rioja,Baron de Ley,3.6,108,6.5,2018,42.3285528,-2.4674917,10.798688570658365,5.430378119150798,16.707546552022297,2.0327240228652954,37035.34375,18.887142181396484,13.461686452229818,25.38217035929362,1.9408960739771526,39642.9765625,11.33245054880778,7.236829837163289,16.273496945699055,1.49433700243632,28008.844401041668
Rosa 2018,Italy,Terre Siciliane,Corvo,3.5,108,7.08,2018,42.83333,12.83333,10.693307558695475,4.006231149037679,16.70938523610433,1.9894982973734539,39602.078125,22.46411387125651,15.005531946818033,28.969994227091473,0.9702867070833842,47036.95703125,11.305813312530518,5.773005247116089,16.654420534769695,3.3380644718805947,30682.592447916668
Hito Rosado 2018,Spain,Ribera del Duero,Cepa 21,3.7,109,7.7,2018,41.6657566,-3.6863295,13.040951093037924,6.2237868309021,20.1077299118042,1.4575627048810322,38207.458333333336,22.973936716715496,15.738195737202963,30.181995391845703,0.7971326311429342,44501.0390625,13.243218739827475,6.998661200205485,20.187085151672363,0.40609318514664966,32052.702473958332
Centoviti Campania Rosato 2018,Italy,Campania,Nativ,4.0,113,11.5,2018,40.860672,14.843984,11.84184710184733,7.154290358225505,16.855401039123535,1.7563799222310383,40137.381510416664,22.737576166788738,17.195526123046875,28.591548919677734,0.48071685433387756,47721.108072916664,13.166783650716146,9.49918270111084,17.509827931722004,4.060609221458435,30596.772786458332
Rosé Saigner 2019,Germany,Pfalz,Schneider,3.9,115,12.0,2019,53.8156324,13.3702287,8.892620941003164,4.312749147415161,13.52642297744751,1.1478852530320485,34172.715494791664,19.474341074625652,14.565383275349935,24.109989166259766,1.2932616472244263,43771.686197916664,10.823776880900065,7.550042708714803,14.42975664138794,0.7539785106976827,22964.796223958332
Blush Pinot Grigio delle Venezie 2018,Italy,delle Venezie,Sartori,3.9,115,8.33,2018,45.3485187,11.9571797,14.28618049621582,9.467024803161621,19.386380513509113,1.9142653147379558,36214.028645833336,24.830661137898762,19.811560948689777,29.905484517415363,1.8611827492713928,45235.348958333336,13.441728274027506,9.576666831970215,18.03670310974121,3.386415719985962,25437.72265625
Bardolino Chiaretto 2019,Italy,Bardolino,Monte del Frá,3.8,119,6.69,2019,45.5475595,10.7242145,13.786392052968344,10.096198717753092,17.61297384897868,3.831003506978353,31742.863932291668,24.33410580952962,20.728905359903973,27.615214029947918,3.034480253855387,44313.166666666664,16.70418866475423,13.822829246520996,19.648546536763508,2.877096732457479,28358.044270833332
Les Clans Rosé 2017,France,Côtes de Provence,Château d'Esclans,4.3,119,62.54,2017,43.4370505,6.652775,14.163895606994629,9.858582337697348,18.2557160059611,0.9791039427121481,39438.692708333336,24.203798294067383,19.662973403930664,28.32454999287923,0.3964157948891322,47256.888020833336,17.28427855173747,13.843671798706055,20.57060782114665,3.5204301675160727,30518.247395833332
Rosé 2018,Portugal,Portalegre,Porta 6,3.5,120,9.12,2018,39.2076447,-7.7215134,16.4247620900472,10.92010243733724,22.436572392781574,1.3016129434108732,38700.408854166664,24.48648452758789,17.330102284749348,32.52150026957194,0.17243727296590797,45573.950520833336,18.823246955871582,13.28580125172933,25.639689763387043,0.8287096431789299,34250.634765625
Rioja Rosado 2019,Spain,Rioja,Ramón Bilbao,3.5,121,7.88,2019,42.3285528,-2.4674917,8.700752894083658,4.600234667460124,13.438156127929688,3.5468817551930747,31272.651692708332,17.94526958465576,13.02480443318685,23.624284744262695,2.0061290661493936,42316.07421875,12.191380182902018,7.9817938804626465,17.324589411417644,2.0297850370407104,29259.714192708332
Rosato 2019,Italy,Terre Siciliane,Calalenta,4.0,121,9.49,2019,42.83333,12.83333,10.944860617319742,5.61612343788147,15.99802335103353,4.016845901807149,32957.818359375,20.684879302978516,13.892772356669107,26.438435236612957,1.5591397881507874,46079.90234375,13.052374521891275,7.969582398732503,18.79178587595622,3.1346237659454346,29003.87109375
Rosado (Clarete) 2018,Spain,Ribera del Duero,Protos,3.4,123,7.9,2018,41.6657566,-3.6863295,13.040951093037924,6.2237868309021,20.1077299118042,1.4575627048810322,38207.458333333336,22.973936716715496,15.738195737202963,30.181995391845703,0.7971326311429342,44501.0390625,13.243218739827475,6.998661200205485,20.187085151672363,0.40609318514664966,32052.702473958332
Rosé de Xinomavro 2018,Greece,Naoussa,Thymiopoulos,4.2,126,13.3,2018,40.630574,22.0696057,13.34741242726644,8.47180970509847,18.027777989705402,3.1733333269755044,38356.290364583336,24.19330342610677,18.96139971415202,28.938315709431965,2.2230823834737143,45194.438802083336,14.874309857686361,10.932562669118246,19.04096794128418,5.451254387696584,31050.948567708332
Clair de Rose 2017,France,Pays d'Oc,Les Jamelles,3.4,127,7.66,2017,43.604764,1.4540399,11.823275566101074,7.489747683207194,16.317973136901855,2.5,32965.451171875,21.868691126505535,16.719085057576496,27.138617833455402,1.0308960874875386,41486.700520833336,15.487911224365236,11.350106080373129,20.102418581644695,1.8339067697525024,28601.802734375
Ribera del Duero Rosae 2018,Spain,Ribera del Duero,Arzuaga,3.8,127,12.0,2018,41.6657566,-3.6863295,13.040951093037924,6.2237868309021,20.1077299118042,1.4575627048810322,38207.458333333336,22.973936716715496,15.738195737202963,30.181995391845703,0.7971326311429342,44501.0390625,13.243218739827475,6.998661200205485,20.187085151672363,0.40609318514664966,32052.702473958332
Rosé 2019,South Africa,Western Cape,Nederburg,3.8,128,6.97,2019,-33.546977,20.72753,16.783308664957683,11.353095054626465,24.092073440551758,0.48978492617607117,33064.50390625,10.956126848856607,5.29522720972697,17.86291567484538,0.5084229310353597,30441.649088541668,16.269717852274578,9.2468581199646,24.539976755777996,0.6114337146282196,39196.901041666664
Rioja Rosado 2019,Spain,Rioja,Marqués de Cáceres,3.8,132,7.99,2019,42.3285528,-2.4674917,8.700752894083658,4.600234667460124,13.438156127929688,3.5468817551930747,31272.651692708332,17.94526958465576,13.02480443318685,23.624284744262695,2.0061290661493936,42316.07421875,12.191380182902018,7.9817938804626465,17.324589411417644,2.0297850370407104,29259.714192708332
Regaleali Le Rosè 2018,Italy,Terre Siciliane,Tasca d'Almerita,4.0,134,7.75,2018,42.83333,12.83333,10.693307558695475,4.006231149037679,16.70938523610433,1.9894982973734539,39602.078125,22.46411387125651,15.005531946818033,28.969994227091473,0.9702867070833842,47036.95703125,11.305813312530518,5.773005247116089,16.654420534769695,3.3380644718805947,30682.592447916668
Iirrésistible Côtes de Provence Rosé 2018,France,Côtes de Provence,Domaine de la Croix,3.9,134,12.2,2018,43.4370505,6.652775,14.916397094726562,9.450949827829996,20.454103469848633,1.6874193747838337,39301.10546875,25.4428513844808,19.726971944173176,31.13584327697754,0.20200716083248457,47460.454427083336,15.911219278971354,11.008405208587646,21.98125457763672,0.8070967607200146,33187.498697916664
Visione 2019,Italy,Irpinia,Feudi di San Gregorio,4.0,134,12.03,2019,39.2278067,9.1185486,15.256067276000977,12.095753033955893,18.74193541208903,3.5280644496281943,35445.542317708336,24.631598154703777,20.87395985921224,28.880699157714844,1.0259498765226454,44659.80859375,19.36682065327962,16.490841547648113,22.658260345458984,2.9944801727930703,30195.489583333332
Pinot Rosé 2019,New Zealand,Marlborough,The Ned,3.7,134,13.85,2019,-41.4744747,173.8330263,13.029088973999023,9.174718697865805,18.021618843078613,2.27767022450765,28442.056640625,7.874045689900716,4.054091374079387,12.742945035298666,3.457598606745402,22950.337239583332,11.92463207244873,7.576600710550944,17.447460810343426,3.3616488377253213,35442.954427083336
Conde de Valdemar Rosado 2017,Spain,Rioja,Bodegas Valdemar,3.6,135,8.19,2017,42.3285528,-2.4674917,8.363130410512289,3.6768925189971924,13.279884974161783,2.2012186447779336,38592.696614583336,18.777507781982422,12.716211636861166,25.051245371500652,0.9456272125244141,46389.118489583336,12.51040538152059,7.762089649836223,17.955817222595215,1.7307885885238647,30604.213541666668
Grenache Rosé 2018,United States,California,Gallo Family Vineyards,3.3,137,6.3,2018,36.7014631,-118.755997,0.5629185835520426,-3.7736665407816568,6.213878154754639,2.5782436529795327,40607.654947916664,13.631827036539713,7.72972043355306,19.842230478922527,1.1174551645914714,47027.428385416664,5.913620829582214,1.0169426600138347,11.951405048370361,1.7365589886903763,36116.457682291664
3055 Rosé 2017,Spain,Penedès,Jean Leon,3.8,141,14.5,2017,41.3463825,1.6995213,12.787402153015137,8.846198876698812,16.80171839396159,1.4764157732327778,38812.192708333336,22.462533950805664,18.3767188390096,26.353152592976887,0.5548028846581777,47632.3046875,16.7331698735555,13.75894037882487,20.081091562906902,2.524444341659546,31890.748046875
Negroamaro Kreos 2018,Italy,Salento,Castello Monaci,3.6,141,7.4,2018,40.248604,15.190058,12.198895772298178,6.967299143473308,17.452209790547688,1.6349461277325947,40751.768229166664,22.55588658650716,16.937155723571777,27.95375124613444,0.42734766999880475,47606.830729166664,13.670396486918131,9.465883413950602,18.409306526184082,4.535161316394806,32657.016927083332
Romance Rosé 2019,France,Côtes de Provence,Château de Berne,4.0,142,9.26,2019,43.4370505,6.652775,14.172517458597818,9.440376281738281,18.81331475575765,3.2251970767974854,34775.134765625,25.250930786132812,19.404856363932293,30.425662994384766,1.240215043226878,45667.513020833336,17.593576113382976,13.263979276021322,22.038387298583984,5.715053786834081,28940.379557291668
