Name,Country,Region,Winery,Rating,NumberOfRatings,Price,Year,city,country,lat,lng
Pomerol 2011,France,Pomerol,Château La Providence,4.2,100,95.0,2011,Pomerol,France,44.9311234,-0.1999904
Lirac 2017,France,Lirac,Château Mont-Redon,4.3,100,15.5,2017,Lirac,France,44.0372,4.69136
Erta e China Rosso di Toscana 2015,Italy,Toscana,Renzo Masi,3.9,100,7.45,2015,Toscana,Italy,43.4586541,11.1389204
Bardolino 2019,Italy,Bardolino,Cavalchina,3.5,100,8.72,2019,Bardolino,Italy,45.5475595,10.7242145
Ried Scheibner Pinot Noir 2016,Austria,Carnuntum,Markowitsch,3.9,100,29.15,2016,Carnuntum,Austria,48.1141485,16.8657834
Gigondas (Nobles Terrasses) 2017,France,Gigondas,Vieux Clocher,3.7,100,19.9,2017,Gigondas,France,44.1641127,5.0051053
Marion's Vineyard Pinot Noir 2016,New Zealand,Wairarapa,Schubert,4.0,100,43.87,2016,Wairarapa,New Zealand,-41.2361798,175.2196902
Red Blend 2014,Chile,Itata Valley,Viña La Causa,3.9,100,17.52,2014,Itata Valley,Chile,-30.0,-71.0
Chianti 2015,Italy,Chianti,Castello Montaùto,3.6,100,10.75,2015,Chianti,Italy,43.5824597,11.3168731
Tradition 2014,France,Minervois,Domaine des Aires Hautes,3.5,100,6.9,2014,Minervois,France,43.2718,2.52099
Chianti Riserva 2013,Italy,Chianti,Poggiotondo,3.9,100,20.95,2013,Chianti,Italy,43.5824597,11.3168731
Descendant 2016,Australia,Barossa,Torbreck,4.3,100,140.64,2016,Barossa,Australia,-34.6134149,138.9385455
Les Obriers de la Peira Terrasses du Larzac 2017,France,Terrasses du Larzac,La Pèira en Damaisèla,4.1,100,14.52,2017,Terrasses du Larzac,France,43.7152761,3.4888802
Zenas Primitivo 2018,Italy,Puglia,La Bollina,3.6,100,9.26,2018,Puglia,Italy,40.9842539,16.6210027
Cuvée Confidence Côtes du Rhône Rouge 2017,France,Côtes-du-Rhône,Domaine Fond Croze,3.7,100,8.49,2017,Côtes-du-Rhône,France,44.7667285,4.8528701
Shiraz 2018,Australia,South Eastern Australia,Barramundi,3.2,100,6.5,2018,South Eastern Australia,Australia,-35.0085711,138.5726421
Proprietor's Blend 2016,South Africa,Stellenbosch,Ernie Els,4.2,100,29.09,2016,Stellenbosch,South Africa,-33.934444,18.869167
La Bienquerida 2016,Spain,Bierzo,Losada,4.3,100,41.58,2016,Bierzo,Spain,42.60645,-6.8097712
Cabernet Sauvignon 2015,United States,California,Hacienda,3.8,100,7.95,2015,California,United States,36.7014631,-118.755997
Fulgeo Negroamaro Salento 2016,Italy,Salento,San Donaci,4.0,100,12.9,2016,Salento,Italy,40.248604,15.190058
Contraste Tinto 2015,Portugal,Douro,Conceito,3.4,100,9.9,2015,Douro,Portugal,41.135684,-7.1166743
Steiner 2013,Hungary,Sopron,Weninger,3.7,100,24.5,2013,Sopron,Hungary,47.6803063,16.5983457
Old Vines Primitivo 2015,Italy,Puglia,Azienda Agricola Morella,4.2,100,38.7,2015,Puglia,Italy,40.9842539,16.6210027
Virtus Tannat 2013,Brazil,Serra Gaúcha,Monte Paschoal,2.9,100,6.77,2013,Serra Gaúcha,Brazil,-29.1551147,-51.5153447
Kallista 2015,South Africa,Stellenbosch,Vriesenhof,4.3,100,26.25,2015,Stellenbosch,South Africa,-33.934444,18.869167
Badia a Passignano Gran Selezione Chianti Classico 2016,Italy,Chianti Classico,Antinori,4.2,1000,39.9,2016,Chianti Classico,Italy,43.3930219,11.3088538
Saint-Émilion Grand Cru (Premier Grand Cru Classé) 2012,France,Saint-Émilion Grand Cru,Château Figeac,4.4,1000,174.49,2012,Saint-Émilion Grand Cru,France,44.847147,-0.547337
Carlo V Il Rosso dell'Imperatore 2013,Italy,Veneto,Colli Vicentini,3.7,1000,15.9,2013,Veneto,Italy,45.6476663,11.8665254
Pinot Noir 2016,United States,Monterey,District 7,3.6,1001,15.98,2016,Monterey,United States,36.2231079,-121.387742
Marquis de Calon Saint-Estèphe 2015,France,Saint-Estèphe,Château Calon-Ségur,3.9,1001,43.28,2015,Saint-Estèphe,France,45.5925,0.6633333
Hécula Monastrell 2017,Spain,Yecla,Castaño,3.3,1004,8.83,2017,Yecla,Spain,38.6135956,-1.1157882
Berola 2015,Spain,Campo de Borja,Borsao,3.9,1006,14.52,2015,Campo de Borja,Spain,41.7865415,-1.5058323
Saint-Julien (Grand Cru Classé) 2010,France,Saint-Julien,Château Léoville Poyferré,4.4,1008,189.0,2010,Saint-Julien,France,47.4019947,5.1364639
Pinot Noir Bourgogne 2017,France,Bourgogne,Faiveley,3.7,1009,15.9,2017,Bourgogne,France,49.3555104,4.0681417
Vigna del Noce Barbera d'Asti 2007,Italy,Barbera d'Asti,Trinchero,4.1,101,76.9,2007,Barbera d'Asti,Italy,44.8524808,8.2414532
I Tratturi Rosso 2017,Italy,Salento,San Marzano,3.8,101,7.04,2017,Salento,Italy,40.248604,15.190058
Château Pilet Bordeaux 2017,France,Bordeaux,J.Queyrens & Fils,3.6,101,6.5,2017,Bordeaux,France,44.841225,-0.5800364
Sancerre Rouge 2015,France,Sancerre,Comte Lafond,4.2,101,37.34,2015,Sancerre,France,47.3306906,2.8390454
Shiraz 2016,Australia,McLaren Vale,Food Truck,3.5,101,8.67,2016,McLaren Vale,Australia,-35.2172617,138.5416998
Ro-Rée Saint-Joseph 2018,France,Saint-Joseph,Louis Chèze,4.2,101,24.37,2018,Saint-Joseph,France,49.5344534,-1.529802
Cabernet Sauvignon 2015,South Africa,Stellenbosch,Big Flower,4.0,101,16.5,2015,Stellenbosch,South Africa,-33.934444,18.869167
Cuvée Alienor Fronsac 2015,France,Fronsac,Château Mayne-Vieil,3.7,101,16.47,2015,Fronsac,France,42.9509183,0.6487221
Sabbie di Sopra al Bosco 2014,Italy,Terre del Volturno,Nanni Copé,3.8,101,31.96,2014,Terre del Volturno,Italy,41.02317,13.92577
Roma Rosso 2018,Italy,Lazio,Poggio le Volpi,4.0,101,9.95,2018,Lazio,Italy,41.9808038,12.7662312
Garnacha de Arrayán 2014,Spain,Castilla y León,Arrayán,3.7,101,21.9,2014,Castilla y León,Spain,41.55005,-5.1387401
Cabernet Sauvignon 2018,Chile,Central Valley,Valdivieso,3.3,101,7.6,2018,Central Valley,Chile,-36.0,-72.0
Terrenus Vinhas Velhas Reserva 2013,Portugal,Alentejano,Rui Reguinga,4.1,101,27.95,2013,Alentejano,Portugal,38.8421261,-7.5871012
Fronsac 2005,France,Fronsac,Château Villars,3.8,101,25.95,2005,Fronsac,France,42.9509183,0.6487221
Cuvée Charles de Batz Madiran 2014,France,Madiran,Domaine Berthoumieu,3.7,101,14.09,2014,Madiran,France,43.5502022,-0.0580853
Stony Terrace Cabernet Sauvignon 2016,United States,Napa Valley,Rutherford Wine Company,3.8,101,18.03,2016,Napa Valley,United States,38.8484702,-94.413093
12 e Mezzo Puglia Primitivo Organic Wine 2016,Italy,Puglia,Varvaglione,3.9,101,9.4,2016,Puglia,Italy,40.9842539,16.6210027
El Abuelo Selección Edición Limitada 2013,Spain,Almansa,Bodegas Piqueras,4.2,101,10.95,2013,Almansa,Spain,38.8682065,-1.0978627
Sangre de Toro Special Selection 2017,Spain,Catalunya,Torres,3.6,101,8.9,2017,Catalunya,Spain,41.8523094,1.5745043
Château Paul Mas Coteaux du Languedoc Clos des Mures 2018,France,Languedoc,Paul Mas,3.8,101,11.05,2018,Languedoc,France,43.6796869,1.3966515
Merlot 2018,France,Pays d'Oc,Les Jamelles,3.6,101,5.36,2018,Pays d'Oc,France,43.604764,1.4540399
Roscaleto Barbera d'Alba 2015,Italy,Barbera d'Alba,Enzo Boglietti,3.9,101,31.18,2015,Barbera d'Alba,Italy,44.7712158,8.0435811
Barolo Cannubi 2014,Italy,Barolo,Giacomo Fenocchio,4.0,101,39.9,2014,Barolo,Italy,44.6108408,7.9428448
Pauillac (Premier Grand Cru Classé) 2017,France,Pauillac,Château Mouton Rothschild,4.6,101,633.62,2017,Pauillac,France,45.1995626,-0.7484994
Cabernet Sauvignon 2014,United States,Washington,Stimson Estate Cellars,3.3,101,8.29,2014,Washington,United States,38.8950368,-77.0365427
Côte-Rôtie Le Gallet Blanc 2017,France,Côte-Rôtie,Francois Villard,4.4,101,48.0,2017,Côte-Rôtie,France,44.7267925,-0.3900425
Capatosta 2015,Italy,Toscana,Poggio Argentiera,3.8,101,19.9,2015,Toscana,Italy,43.4586541,11.1389204
Constance Madiran 2015,France,Madiran,Domaine Berthoumieu,3.8,101,9.5,2015,Madiran,France,43.5502022,-0.0580853
Oak Cask Malbec 2019,Argentina,Mendoza,Trapiche,3.7,1010,7.36,2019,Mendoza,Argentina,-34.787093,-68.4381868
Amancaya Malbec - Cabernet Sauvignon 2017,Argentina,Mendoza,Caro (Catena and Rothschild),4.0,1010,16.8,2017,Mendoza,Argentina,-34.787093,-68.4381868
Laccento Ruché di Castagnole Monferrato 2017,Italy,Ruchè,Montalbera,4.0,1012,19.9,2017,Ruchè,Italy,45.6350879,10.494352
San Leonardo 2011,Italy,Vigneti delle Dolomiti,San Leonardo,4.3,1012,48.64,2011,Vigneti delle Dolomiti,Italy,46.38333,11.85
Fausto Tannat 2015,Brazil,Serra Gaúcha,Pizzato,3.6,1012,11.35,2015,Serra Gaúcha,Brazil,-29.1551147,-51.5153447
Pauillac (Grand Cru Classé) 2007,France,Pauillac,Château Pichon Baron,4.4,1014,119.0,2007,Pauillac,France,45.1995626,-0.7484994
Disciples 2016,United States,Napa Valley,The Crane Assembly,4.3,1014,53.61,2016,Napa Valley,United States,38.8484702,-94.413093
Zinfandel 2015,United States,Mendocino County,Bonterra,3.6,1015,16.75,2015,Mendocino County,United States,39.3176491,-123.4126399
Margaux 2010,France,Margaux,Château Labégorce,4.0,1016,40.95,2010,Margaux,France,45.0463335,-0.6729117
La Luna e i Falò Barbera d'Asti Superiore 2015,Italy,Barbera d'Asti,Vite Colte,3.8,1016,11.49,2015,Barbera d'Asti,Italy,44.8524808,8.2414532
Ribera del Duero 2015,Spain,Ribera del Duero,Garmón,4.2,1017,38.8,2015,Ribera del Duero,Spain,41.6657566,-3.6863295
Les Jardins Rouge 2018,France,Faugères,Saint Antonin,3.8,102,7.95,2018,Faugères,France,43.5648186,3.1901144
Nero d'Avola - Syrah 2018,Italy,Terre Siciliane,Roccaperciata,3.7,102,4.75,2018,Terre Siciliane,Italy,42.83333,12.83333
La Bienquerida 2013,Spain,Bierzo,Losada,4.1,102,35.97,2013,Bierzo,Spain,42.60645,-6.8097712
Bonera 2018,Italy,Terre Siciliane,Mandrarossa,3.7,102,9.5,2018,Terre Siciliane,Italy,42.83333,12.83333
Noi 4 Bolgheri 2016,Italy,Bolgheri,Tenuta dei Sette Cieli,4.0,102,23.5,2016,Bolgheri,Italy,43.2340065,10.6179334
Pinot Noir 2016,New Zealand,Marlborough,Clos Henri Vineyard,3.9,102,27.78,2016,Marlborough,New Zealand,-41.4744747,173.8330263
Saint-Émilion Grand Cru 2005,France,Saint-Émilion Grand Cru,Château Grand Barrail Lamarzelle Figeac,3.9,102,39.95,2005,Saint-Émilion Grand Cru,France,44.847147,-0.547337
Gran Selección Tempranillo 2017,Spain,Castilla,Viña San Juan,3.4,102,6.75,2017,Castilla,Spain,40.4763551,-3.6800358
Syrah 2017,South Africa,Paarl,Glen Carlou,3.9,102,18.25,2017,Paarl,South Africa,-33.7310282,18.9642117
Zweigelt 2017,Austria,Burgenland,Judith Beck,3.9,102,10.6,2017,Burgenland,Austria,47.5000001,16.4166666
Saint-Émilion Grand Cru 2015,France,Saint-Émilion Grand Cru,Château Vieux Clos St. Emilion,4.1,102,23.09,2015,Saint-Émilion Grand Cru,France,44.847147,-0.547337
Listán Negro 2017,Spain,Lanzarote,Bermejo,3.6,102,17.95,2017,Lanzarote,Spain,29.0397081,-13.6362916
Viile Metamorfosis Merlot 2015,Romania,Dealu Mare,Vitis Metamorfosis,3.5,102,7.5,2015,Dealu Mare,Romania,46.0417098,22.7959016
Merlot - Cabernet Sauvignon - Petit Verdot 2014,South Africa,Walker Bay,Creation,3.9,102,12.48,2014,Walker Bay,South Africa,-34.518515,19.2880206
RWT Shiraz 2017,Australia,Barossa Valley,Penfolds,4.4,102,229.0,2017,Barossa Valley,Australia,-34.5817132,138.9987872
Fronton 2018,France,Fronton,Château Bellevue La Forét,3.5,102,6.95,2018,Fronton,France,43.840295,1.390285
Costers Del Gravet Montsant 2013,Spain,Montsant,Capçanes,3.7,102,13.95,2013,Montsant,Spain,41.1171253,1.211005
Merlot 2018,Italy,Terre Siciliane,Cusumano,3.4,102,7.9,2018,Terre Siciliane,Italy,42.83333,12.83333
Pinot Noir 2015,Austria,Burgenland,Paul Achs,3.7,102,33.05,2015,Burgenland,Austria,47.5000001,16.4166666
Coume de l'Olla Rouge 2019,France,Vin de France,Matassa,4.1,102,16.96,2019,Vin de France,France,50.2767373,3.977096
Schwarzer 2017,Germany,Pfalz,Weingut Metzger,3.6,102,13.15,2017,Pfalz,Germany,53.8156324,13.3702287
Haut-Médoc 2015,France,Haut-Médoc,Château Beaumont,3.8,1020,17.36,2015,Haut-Médoc,France,45.1445995,-0.7357492
Bourgogne Pinot Noir (La Vignée) 2015,France,Bourgogne,Bouchard Père & Fils,3.6,1020,17.59,2015,Bourgogne,France,49.3555104,4.0681417
Pinot Noir 2017,South Africa,Hemel-en-Aarde Valley,Hamilton Russell Vineyards,4.2,1022,49.09,2017,Hemel-en-Aarde Valley,South Africa,-34.39455,19.22012
Zinfandel 2016,United States,California,Geyser Peak,3.7,1023,10.9,2016,California,United States,36.7014631,-118.755997
Valpolicella Ripasso Classico Superiore 2017,Italy,Valpolicella Ripasso Classico,Bolla,3.7,1024,15.5,2017,Valpolicella Ripasso Classico,Italy,42.83333,12.83333
Rosso di Montalcino 2015,Italy,Rosso di Montalcino,Castiglion del Bosco,3.9,1025,26.5,2015,Rosso di Montalcino,Italy,43.055612,11.3592953
Ripanço Private Selection Alentejano 2016,Portugal,Alentejano,José Maria da Fonseca,3.7,1026,8.6,2016,Alentejano,Portugal,38.8421261,-7.5871012
Riserva Cannonau di Sardegna 2017,Italy,Cannonau di Sardegna,Sella & Mosca,3.8,1027,10.66,2017,Cannonau di Sardegna,Italy,40.2568502,9.6218801
60 Sessantanni Old Vines Primitivo di Manduria 2016,Italy,Primitivo di Manduria,San Marzano,4.4,1028,17.24,2016,Primitivo di Manduria,Italy,40.4002788,17.6374622
Kith & Kin Cabernet Sauvignon 2017,United States,Napa Valley,Round Pond Estate,4.2,1028,38.5,2017,Napa Valley,United States,38.8484702,-94.413093
Zinfandel 2017,United States,California,Rombauer Vineyards,4.3,1029,34.12,2017,California,United States,36.7014631,-118.755997
Cerro Añon Rioja Gran Reserva 2011,Spain,Rioja,Bodegas Olarra,4.1,103,14.65,2011,Rioja,Spain,42.3285528,-2.4674917
Bush Vine GSM (Shiraz - Grenache - Mourvedre) 2013,Australia,McLaren Vale,Geoff Merrill,4.0,103,14.57,2013,McLaren Vale,Australia,-35.2172617,138.5416998
Plaer Vinyes Velles 2016,Spain,Priorat,Acustic Celler,4.1,103,26.18,2016,Priorat,Spain,41.2137983,0.8116236
Cabernet - Shiraz 2016,Spain,La Mancha,Añoranza,3.4,103,3.95,2016,La Mancha,Spain,28.3774367,-16.6977504
Saint-Émilion Grand Cru 2014,France,Saint-Émilion Grand Cru,Château La Confession,3.9,103,26.9,2014,Saint-Émilion Grand Cru,France,44.847147,-0.547337
Comte de Sénéjac Haut-Médoc 2011,France,Haut-Médoc,Château Sénéjac,3.7,103,16.83,2011,Haut-Médoc,France,45.1445995,-0.7357492
Gran Masetto Teroldego 2014,Italy,Trentino,Endrizzi,4.4,103,39.9,2014,Trentino,Italy,46.1029536,11.1297425
Barolo Mariondino 2015,Italy,Barolo,Parusso,4.1,103,39.9,2015,Barolo,Italy,44.6108408,7.9428448
Crianza 2016,Spain,Rioja,Berceo,3.6,103,9.9,2016,Rioja,Spain,42.3285528,-2.4674917
Apogee Pepper Bridge Vineyard 2013,United States,Walla Walla Valley,L'Ecole No 41,4.1,103,46.9,2013,Walla Walla Valley,United States,36.2399704,-112.2245586
Gamma Red Blend 2018,Spain,Navarra,Bodegas Piedemonte,3.4,103,6.15,2018,Navarra,Spain,42.6125488,-1.8307877
Peyres Nobles Rouge 2018,France,Corbières,Château Camplong,4.0,103,6.5,2018,Corbières,France,43.0547547,1.9970557
Lemartine Toscana 2015,Italy,Toscana,Poggio Antico,4.1,103,29.67,2015,Toscana,Italy,43.4586541,11.1389204
Organic Cabernet 2018,Australia,South Australia,Farm Hand,3.7,103,7.79,2018,South Australia,Australia,-30.5343665,135.6301212
Pomerol 1999,France,Pomerol,Château Nénin,4.1,103,240.0,1999,Pomerol,France,44.9311234,-0.1999904
Malterdinger Alte Reben Spätburgunder 2016,Germany,Baden,Bernhard Huber,4.1,103,38.69,2016,Baden,Germany,53.0023496,9.0820955
Cabernet Franc 2012,South Africa,Franschhoek,Anthonij Rupert,4.2,103,59.95,2012,Franschhoek,South Africa,-33.909167,19.119444
Saint-Émilion Grand Cru (Premier Grand Cru Classé) 2002,France,Saint-Émilion Grand Cru,Château Valandraud,4.4,103,193.02,2002,Saint-Émilion Grand Cru,France,44.847147,-0.547337
Bramare Rebon Vineyard Malbec 2017,Argentina,Mendoza,Viña Cobos,4.6,103,75.07,2017,Mendoza,Argentina,-34.787093,-68.4381868
Merlot Reserva 2008,Brazil,Vale dos Vinhedos,Pizzato,3.2,103,15.9,2008,Vale dos Vinhedos,Brazil,-29.1790429,-51.5789598
Brunello di Montalcino Pianrosso 2015,Italy,Brunello di Montalcino,Ciacci Piccolomini d'Aragona,4.4,103,66.29,2015,Brunello di Montalcino,Italy,43.3204995,11.3281859
François de Tournon Saint-Joseph 2016,France,Saint-Joseph,Delas,3.9,103,29.15,2016,Saint-Joseph,France,49.5344534,-1.529802
Estibals Minervois 2018,France,Minervois,L'Ostal Cazes,3.6,103,10.99,2018,Minervois,France,43.2718,2.52099
Barbera - Garnacha 2017,Chile,Maule Valley,Erasmo,3.5,103,12.62,2017,Maule Valley,Chile,-30.0,-71.0
Roi des Lézards 2014,France,Côtes Catalanes,Domaine Les Enfants Sauvages,3.9,103,19.4,2014,Côtes Catalanes,France,42.74503,2.896873
One Point Five Cabernet Sauvignon 2016,United States,Stags Leap District,Shafer,4.5,1030,120.01,2016,Stags Leap District,United States,36.578676,-79.389888
Barbaresco 2013,Italy,Barbaresco,Gaja,4.4,1030,199.9,2013,Barbaresco,Italy,44.7254469,8.0806959
Saint-Julien (Grand Cru Classé) 2006,France,Saint-Julien,Château Branaire-Ducru,3.9,1030,59.54,2006,Saint-Julien,France,47.4019947,5.1364639
Médoc 2012,France,Médoc,Château Potensac,3.8,1033,39.69,2012,Médoc,France,49.3524933,6.1542002
Pieve Santa Restituta Brunello di Montalcino 2014,Italy,Brunello di Montalcino,Gaja,4.3,1035,59.9,2014,Brunello di Montalcino,Italy,43.3204995,11.3281859
Gran Maestro Primitivo di Manduria 2017,Italy,Primitivo di Manduria,Maestro Italiano,4.1,1036,9.75,2017,Primitivo di Manduria,Italy,40.4002788,17.6374622
Saint-Julien (Grand Cru Classé) 2011,France,Saint-Julien,Château Léoville Barton,4.2,1037,87.24,2011,Saint-Julien,France,47.4019947,5.1364639
Inferno (Aged in Whiskey Barrels - Limited Release) 2017,United States,California,Apothic,3.8,1037,14.56,2017,California,United States,36.7014631,-118.755997
Pessac-Léognan (Grand Cru Classé de Graves) 2007,France,Pessac-Léognan,Château Pape Clément,4.3,1037,161.1,2007,Pessac-Léognan,France,44.718997,-0.60521
Faithful Hound Red 2015,South Africa,Stellenbosch,Mulderbosch,4.0,1038,14.9,2015,Stellenbosch,South Africa,-33.934444,18.869167
Serego Alighieri Vaio Armaron Amarone della Valpolicella Classico 2012,Italy,Amarone della Valpolicella,Masi,4.3,1039,69.0,2012,Amarone della Valpolicella,Italy,42.83333,12.83333
Rosso di Montalcino 2018,Italy,Rosso di Montalcino,Talenti,3.7,104,14.43,2018,Rosso di Montalcino,Italy,43.055612,11.3592953
Chianti 2017,Italy,Chianti,Sammontana,3.7,104,8.9,2017,Chianti,Italy,43.5824597,11.3168731
Azul 2015,Spain,Ribera del Queiles,Guelbenzu,3.8,104,6.99,2015,Ribera del Queiles,Spain,40.0,-4.0
Sanct Valentin Riserva Pinot Noir 2017,Italy,Südtirol - Alto Adige,St. Michael-Eppan,4.1,104,33.2,2017,Südtirol - Alto Adige,Italy,46.441472,11.282121
Mas Collet Barrica 2009,Spain,Montsant,Capçanes,3.5,104,21.91,2009,Montsant,Spain,41.1171253,1.211005
Valpolicella Ripasso Classico Superiore 2016,Italy,Valpolicella Ripasso Classico,Paolo Cottini,4.0,104,16.9,2016,Valpolicella Ripasso Classico,Italy,42.83333,12.83333
Toscana Poggio Ai Merli 2016,Italy,Toscana,Castellare,4.3,104,69.0,2016,Toscana,Italy,43.4586541,11.1389204
Viña Aljibes Red Blend 2016,Spain,Castilla,Finca Los Aljibes,3.4,104,8.2,2016,Castilla,Spain,40.4763551,-3.6800358
Châteauneuf-du-Pape (La Crau) 2017,France,Châteauneuf-du-Pape,Domaine du Vieux Télégraphe,4.4,104,79.95,2017,Châteauneuf-du-Pape,France,44.055989,4.8317351
Châteauneuf-Du-Pape La Paillousse Terroir D'Exception Rouge 2015,France,Châteauneuf-du-Pape,Pierre Amadieu,4.0,104,26.23,2015,Châteauneuf-du-Pape,France,44.055989,4.8317351
Mencia 2015,Spain,Valdeorras,Viña Costeira,3.2,104,8.28,2015,Valdeorras,Spain,42.3483416,-6.9659982
Santenay Clos de Malte 2016,France,Santenay,Louis Jadot,4.1,104,32.0,2016,Santenay,France,46.9115071,4.6996302
Sudisfà Roero Riserva 2015,Italy,Roero,Negro Angelo,4.1,104,29.9,2015,Roero,Italy,44.7806865,7.9311892
Léa Les Aspres Côtes du Roussillon Rouge 2012,France,Côtes du Roussillon,Domaine Lafage,4.0,104,19.95,2012,Côtes du Roussillon,France,45.3709088,4.8124715
Alleanza 2012,Italy,Toscana,Castello di Gabbiano,4.1,104,26.95,2012,Toscana,Italy,43.4586541,11.1389204
Valpolicella Ripasso Classico Superiore Solane 2015,Italy,Valpolicella Ripasso,Santi,3.7,1040,14.75,2015,Valpolicella Ripasso,Italy,42.83333,12.83333
Crianza 2015,Spain,Binissalem-Mallorca,Bodegas José L. Ferrer,3.8,1040,11.95,2015,Binissalem-Mallorca,Spain,39.6002717,2.6720865
Courela Tinto 2016,Portugal,Alentejano,Cortes de Cima,3.6,1040,5.65,2016,Alentejano,Portugal,38.8421261,-7.5871012
Barbera d'Alba Tre Vigne 2015,Italy,Barbera d'Alba,Vietti,3.8,1040,19.5,2015,Barbera d'Alba,Italy,44.7712158,8.0435811
No Name 2014,Italy,Piemonte,Borgogno,4.0,1041,34.32,2014,Piemonte,Italy,45.060735,7.923549
Rioja Bordón Reserva 2011,Spain,Rioja,Franco-Espanolas,3.8,1045,10.85,2011,Rioja,Spain,42.3285528,-2.4674917
Pian delle Vigne Brunello di Montalcino 2014,Italy,Brunello di Montalcino,Antinori,4.3,1046,45.6,2014,Brunello di Montalcino,Italy,43.3204995,11.3281859
Almiréz 2016,Spain,Toro,Teso La Monja,4.0,1046,14.95,2016,Toro,Spain,41.5216963,-5.3939824
Colheita Seleccionada Rouge 2010,Portugal,Alentejano,Rapariga da Quinta,3.2,1046,11.7,2010,Alentejano,Portugal,38.8421261,-7.5871012
Ammasso Rosso Sicilia 2016,Italy,Sicilia,Barone Montalto,4.2,1047,16.34,2016,Sicilia,Italy,37.587794,14.155048
Côtes du Rhône Nature Rouge 2016,France,Côtes-du-Rhône,Famille Perrin,3.6,1049,10.45,2016,Côtes-du-Rhône,France,44.7667285,4.8528701
Russian River Valley Zinfandel 2015,United States,Russian River Valley,DeLoach,3.5,105,18.49,2015,Russian River Valley,United States,39.2789696,-123.1029778
Saint-Julien (Grand Cru Classé) 2016,France,Saint-Julien,Château Léoville Las Cases,4.6,105,330.45,2016,Saint-Julien,France,47.4019947,5.1364639
Halkidiki Limnio - Merlot 2013,Greece,Chalkidiki,Tsantali,3.2,105,12.49,2013,Chalkidiki,Greece,40.3309627,23.3621462
Pomerol 2015,France,Pomerol,Château l'Ecuyer,4.2,105,43.16,2015,Pomerol,France,44.9311234,-0.1999904
Toar Valpolicella Classico Superiore 2016,Italy,Valpolicella Classico,Masi,3.7,105,15.6,2016,Valpolicella Classico,Italy,42.83333,12.83333
Arbòre Cannonau di Sardegna 2012,Italy,Cannonau di Sardegna,Gabbas,4.0,105,21.9,2012,Cannonau di Sardegna,Italy,40.2568502,9.6218801
Ángeles de Amaren Tempranillo - Graciano 2015,Spain,Rioja,Bodegas Amaren,4.2,105,15.95,2015,Rioja,Spain,42.3285528,-2.4674917
Barbera 2018,Italy,Piemonte,Serre dei Roveri,3.3,105,6.15,2018,Piemonte,Italy,45.060735,7.923549
Amarone della Valpolicella 2006,Italy,Amarone della Valpolicella,Zýmē,4.5,105,96.9,2006,Amarone della Valpolicella,Italy,42.83333,12.83333
Castillo de Jumilla Monastrell - Tempranillo 2018,Spain,Jumilla,Bleda,3.5,105,5.33,2018,Jumilla,Spain,38.4735408,-1.3285417
Hommage Lirac 2016,France,Lirac,Domaine Coudoulis,3.9,105,19.01,2016,Lirac,France,44.0372,4.69136
Poggio d'Arna Toscana 2014,Italy,Toscana,Tenuta di Sesta,3.6,105,12.9,2014,Toscana,Italy,43.4586541,11.1389204
Vinya Le Havre Reserva Cabernet Sauvignon 2013,Spain,Penedès,Jean Leon,4.0,105,25.75,2013,Penedès,Spain,41.3463825,1.6995213
Brunello di Montalcino 2014,Italy,Brunello di Montalcino,Tenute Silvio Nardi,3.8,105,32.75,2014,Brunello di Montalcino,Italy,43.3204995,11.3281859
Sor Ugo Bolgheri Superiore 2017,Italy,Bolgheri Superiore,Aia Vecchia,4.3,105,23.94,2017,Bolgheri Superiore,Italy,44.46006,7.10425
Ses Nines Negre 2018,Spain,Binissalem-Mallorca,Tianna Negre,3.8,105,11.25,2018,Binissalem-Mallorca,Spain,39.6002717,2.6720865
Terrassen Zweigelt Blauer 2018,Austria,Wachau,Domäne Wachau,3.7,105,9.95,2018,Wachau,Austria,47.7286939,16.2263822
Rosso di Montalcino 2018,Italy,Rosso di Montalcino,Ciacci Piccolomini d'Aragona,4.1,105,16.47,2018,Rosso di Montalcino,Italy,43.055612,11.3592953
Riva Ranch Pinot Noir (Reliz Creek) 2017,United States,Arroyo Seco,Wente,3.9,105,24.15,2017,Arroyo Seco,United States,36.5160231,-105.5699891
Altos R Tempranillo 2017,Spain,Rioja,Altos de Rioja,3.4,105,6.9,2017,Rioja,Spain,42.3285528,-2.4674917
Amarone della Valpolicella Classico 2016,Italy,Amarone della Valpolicella Classico,Zenato,4.2,105,43.61,2016,Amarone della Valpolicella Classico,Italy,42.83333,12.83333
Potenti Toscana (Suvereto) 2015,Italy,Toscana,Petra,3.9,105,39.58,2015,Toscana,Italy,43.4586541,11.1389204
Trentatre 33 Rosso 2017,Italy,Salento,Rocca,3.6,105,6.95,2017,Salento,Italy,40.248604,15.190058
Pievasciata Rosso 2016,Italy,Toscana,Vallepicciola,4.1,105,14.9,2016,Toscana,Italy,43.4586541,11.1389204
Brunello di Montalcino 2013,Italy,Brunello di Montalcino,Tenute Silvio Nardi,3.9,1050,35.5,2013,Brunello di Montalcino,Italy,43.3204995,11.3281859
The Barossan Shiraz 2017,Australia,Barossa Valley,Peter Lehmann,3.8,1051,16.48,2017,Barossa Valley,Australia,-34.5817132,138.9987872
Nero d'Avola 2017,Italy,Terre Siciliane,Colosi,3.8,1055,8.68,2017,Terre Siciliane,Italy,42.83333,12.83333
Bordeaux 2015,France,Bordeaux,Jean-Pierre Moueix,3.5,1056,10.21,2015,Bordeaux,France,44.841225,-0.5800364
Cabernet Sauvignon 2018,United States,California,Woodbridge by Robert Mondavi,3.4,1056,8.95,2018,California,United States,36.7014631,-118.755997
Tinto 2018,Portugal,Lisboa,Porta 6,3.7,1056,9.12,2018,Lisboa,Portugal,38.7077507,-9.1365919
Délicate N.V.,South Africa,Stellenbosch,De Toren,4.1,1056,14.38,N.V.,Stellenbosch,South Africa,-33.934444,18.869167
Aglianico Rubrato 2014,Italy,Irpinia,Feudi di San Gregorio,3.5,1057,10.95,2014,Irpinia,Italy,39.2278067,9.1185486
Gran Verano Cabernet Sauvignon 2018,Chile,Central Valley,Apaltagua,3.4,1059,6.95,2018,Central Valley,Chile,-36.0,-72.0
Grand Estates Merlot 2015,United States,Columbia Valley,Columbia Crest,3.7,1059,12.4,2015,Columbia Valley,United States,46.1576117,-122.9748352
Saint-Julien (Grand Cru Classé) 2017,France,Saint-Julien,Château Beychevelle,4.0,106,86.76,2017,Saint-Julien,France,47.4019947,5.1364639
Copa Santa La Méjanelle 2015,France,Languedoc,Clavel,4.0,106,17.9,2015,Languedoc,France,43.6796869,1.3966515
Cantodoro 2016,Italy,Sicilia,Feudo Arancio,3.6,106,8.5,2016,Sicilia,Italy,37.587794,14.155048
Vitiano San Lorenzo 2014,Italy,Castel San Lorenzo,Falesco,3.9,106,11.95,2014,Castel San Lorenzo,Italy,40.418308,15.227157
Disueri Nero d'Avola 2018,Italy,Sicilia,Cusumano,3.6,106,7.7,2018,Sicilia,Italy,37.587794,14.155048
Kirschgarten Spatburgunder GG 2013,Germany,Pfalz,Knipser,4.2,106,39.95,2013,Pfalz,Germany,53.8156324,13.3702287
B 2017,Spain,Ribera del Duero,Baden Numen,3.8,106,11.21,2017,Ribera del Duero,Spain,41.6657566,-3.6863295
Pinot Noir 2017,Italy,Valle d'Aosta,Ottin - Viticulteur Encaveur,4.0,106,22.5,2017,Valle d'Aosta,Italy,45.730099,7.387426
Protocolo Tinto 2018,Spain,Castilla,Dominio de Eguren,3.7,106,5.95,2018,Castilla,Spain,40.4763551,-3.6800358
Rouge 2016,France,Bordeaux,Bad Boy (Mauvais Garçon),3.9,106,16.9,2016,Bordeaux,France,44.841225,-0.5800364
Côte de Nuits Villages Le Vaucrain 2016,France,Côte de Nuits Villages,Louis Jadot,4.0,106,32.0,2016,Côte de Nuits Villages,France,48.993539,2.061083
Vino Nobile di Montepulciano 2016,Italy,Vino Nobile di Montepulciano,Talosa,3.9,106,17.79,2016,Vino Nobile di Montepulciano,Italy,43.0716467,11.8054771
Yotuel Selección 2014,Spain,Ribera del Duero,Gallego Zapatero,3.6,106,15.75,2014,Ribera del Duero,Spain,41.6657566,-3.6863295
Lanzaga Rioja 2014,Spain,Rioja,Telmo Rodriguez,3.8,106,19.95,2014,Rioja,Spain,42.3285528,-2.4674917
Elysian Collection Merlot 2016,United States,California,Bonterra,3.8,106,26.7,2016,California,United States,36.7014631,-118.755997
La Tiare du Pape Châteauneuf-du-Pape Rouge 2015,France,Châteauneuf-du-Pape,Maison Bouachon,3.9,106,45.0,2015,Châteauneuf-du-Pape,France,44.055989,4.8317351
Spätburgunder Trocken 2015,Germany,Pfalz,Ökonomierat Rebholz,3.9,106,21.4,2015,Pfalz,Germany,53.8156324,13.3702287
El Chocolatero Cariñena 2014,Spain,Cariñena,San Valero,3.2,106,7.75,2014,Cariñena,Spain,41.3382122,-1.2263149
Hermitage La Chapelle Rouge 2016,France,Hermitage,Paul Jaboulet Aîné,4.3,106,249.95,2016,Hermitage,France,47.6406711,-2.7637153
Mas Oliveras Tempranillo 2018,Spain,Catalunya,Ramón Roqueta,3.2,106,6.5,2018,Catalunya,Spain,41.8523094,1.5745043
Pannobile 2015,Austria,Burgenland,Pittnauer,3.9,106,22.13,2015,Burgenland,Austria,47.5000001,16.4166666
Tempus 2018,Italy,Veneto,Stefano Accordini,3.8,106,10.42,2018,Veneto,Italy,45.6476663,11.8665254
Le Clos des Fées (Hervé Bizeul) 2013,France,Côtes du Roussillon,Domaine du Clos des Fées,4.1,106,52.53,2013,Côtes du Roussillon,France,45.3709088,4.8124715
Tío Martín Crianza 2016,Spain,Rioja,D. Mateos,3.8,106,15.69,2016,Rioja,Spain,42.3285528,-2.4674917
Vigna Del Mandorlo Dolcetto d'Alba 2017,Italy,Dolcetto d'Alba,Elvio Cogno,3.4,106,11.5,2017,Dolcetto d'Alba,Italy,42.83333,12.83333
Barolo Bussia 2015,Italy,Barolo,Prunotto,4.1,106,69.0,2015,Barolo,Italy,44.6108408,7.9428448
Tinto 2015,Spain,Rioja,Gran Familia,3.5,106,5.8,2015,Rioja,Spain,42.3285528,-2.4674917
Finca Cuesta Clara Raro Reserva 2015,Spain,Rioja,Campillo,4.2,106,39.99,2015,Rioja,Spain,42.3285528,-2.4674917
Fronsac 2005,France,Fronsac,Château la Vieille Cure,4.0,106,39.95,2005,Fronsac,France,42.9509183,0.6487221
Ventoux 2016,France,Ventoux,Xavier Vignon,3.6,106,8.2,2016,Ventoux,France,48.6778082,2.1768592
Hussonet Cabernet Sauvignon Gran Reserva 2015,Chile,Maipo Valley,Haras de Pirque,3.7,1060,15.95,2015,Maipo Valley,Chile,-30.0,-71.0
Salice Salentino Riserva 2016,Italy,Salice Salentino,Marchese di Borgosole,3.9,1061,8.49,2016,Salice Salentino,Italy,40.3856618,17.9637483
Chianti Classico 2016,Italy,Chianti Classico,Isole e Olena,3.9,1063,20.86,2016,Chianti Classico,Italy,43.3930219,11.3088538
Joseph Meczan Pinot Nero - Blauburgunder Alto Adige 2016,Italy,Südtirol - Alto Adige,J. Hofstätter,3.6,1064,13.48,2016,Südtirol - Alto Adige,Italy,46.441472,11.282121
Brunello di Montalcino 2014,Italy,Brunello di Montalcino,Tenuta Il Poggione,4.2,1065,36.63,2014,Brunello di Montalcino,Italy,43.3204995,11.3281859
Cabernet Sauvignon 2015,United States,Columbia Valley,Columbia Winery,3.8,1065,17.75,2015,Columbia Valley,United States,46.1576117,-122.9748352
Saint-Julien (Grand Cru Classé) 2009,France,Saint-Julien,Château Léoville Barton,4.4,1066,133.06,2009,Saint-Julien,France,47.4019947,5.1364639
Pessac-Léognan (Grand Cru Classé de Graves) 2005,France,Pessac-Léognan,Château Smith Haut-Lafitte,4.4,1066,169.95,2005,Pessac-Léognan,France,44.718997,-0.60521
Cabernet Sauvignon 2013,Mexico,Valle de Guadalupe,L. A. Cetto,3.4,1066,8.65,2013,Valle de Guadalupe,Mexico,21.0426533,-102.6798646
Malbec 2017,Argentina,Mendoza,Catena,4.1,10676,13.5,2017,Mendoza,Argentina,-34.787093,-68.4381868
Saint-Estèphe (Grand Cru Classé) 2009,France,Saint-Estèphe,Château Lafon-Rochet,4.2,1069,75.98,2009,Saint-Estèphe,France,45.5925,0.6633333
Amarone della Valpolicella Classico 2014,Italy,Amarone della Valpolicella Classico,Bolla,4.1,1069,28.99,2014,Amarone della Valpolicella Classico,Italy,42.83333,12.83333
Saint-Émilion Grand Cru (Premier Grand Cru Classé) 2014,France,Saint-Émilion Grand Cru,Château Belair-Monange,4.0,107,130.97,2014,Saint-Émilion Grand Cru,France,44.847147,-0.547337
Margaux (Grand Cru Classé) 2017,France,Margaux,Château Lascombes,4.0,107,86.76,2017,Margaux,France,45.0463335,-0.6729117
Pauillac (Grand Cru Classé) 2017,France,Pauillac,Château d'Armailhac,3.9,107,52.64,2017,Pauillac,France,45.1995626,-0.7484994
Figure Libre Freestyle Rouge 2018,France,Pays d'Oc,Gayda,3.7,107,11.45,2018,Pays d'Oc,France,43.604764,1.4540399
Pinot Noir 2018,France,Pays d'Oc,La Forge Estate,3.6,107,7.27,2018,Pays d'Oc,France,43.604764,1.4540399
Tinto 2018,Spain,Alicante,Vergel,3.6,107,7.35,2018,Alicante,Spain,38.3436365,-0.4881708
Les Coteaux Cabernet Sauvignon 2015,South Africa,Wellington,Mont du Toit,3.8,107,11.5,2015,Wellington,South Africa,-33.643055,19.010556
Mayro Montepulciano d'Abruzzo 2015,Italy,Montepulciano d'Abruzzo,Fosso Corno,3.7,107,7.75,2015,Montepulciano d'Abruzzo,Italy,42.1565463,14.6066804
Barbera d'Alba 2018,Italy,Barbera d'Alba,Comm. G.B. Burlotto,3.9,107,17.0,2018,Barbera d'Alba,Italy,44.7712158,8.0435811
Blauer Spätburgunder 2015,Germany,Baden,Ziereisen,3.7,107,11.31,2015,Baden,Germany,53.0023496,9.0820955
Promontory 2013,United States,Napa Valley,Promontory,4.7,107,721.34,2013,Napa Valley,United States,38.8484702,-94.413093
Tempranillo - Merlot 2015,Spain,Ribera del Duero,Rolland & Galarreta 'R&G',3.7,107,13.95,2015,Ribera del Duero,Spain,41.6657566,-3.6863295
Sankt Laurent 2017,Austria,Burgenland,Umathum,3.6,107,13.2,2017,Burgenland,Austria,47.5000001,16.4166666
Gigondas 2017,France,Gigondas,M. Chapoutier,3.9,107,24.8,2017,Gigondas,France,44.1641127,5.0051053
Driopi Classic Agiorgitiko Nemea 2017,Greece,Nemea,Κτημα Τσελεπου (Ktima Tselepos),3.7,107,11.5,2017,Nemea,Greece,37.8209952,22.6613055
Magna Malbec 2018,Argentina,San Juan,Callia,3.5,107,8.95,2018,San Juan,Argentina,-30.7054363,-69.1988222
Nero 2010,Italy,Salento,Conti Zecca,4.0,107,25.12,2010,Salento,Italy,40.248604,15.190058
Salice Salentino 2017,Italy,Salice Salentino,Epicuro,3.6,107,6.25,2017,Salice Salentino,Italy,40.3856618,17.9637483
Valpolicella Superiore 2014,Italy,Valpolicella,Rocca Sveva,3.7,107,15.84,2014,Valpolicella,Italy,45.5296706,10.9400217
Gevrey-Chambertin 2015,France,Gevrey-Chambertin,Chanson,4.1,107,50.9,2015,Gevrey-Chambertin,France,47.2261857,4.9705666
Pago de los Balagueses Garnacha Tintorera - Merlot 2014,Spain,Valencia,Vegalfaro,3.8,107,16.9,2014,Valencia,Spain,39.4697065,-0.3763353
Barolo Liste 2013,Italy,Barolo,Borgogno,4.2,107,80.01,2013,Barolo,Italy,44.6108408,7.9428448
Adrianna Vineyard Fortuna Terrae Malbec 2016,Argentina,Mendoza,Catena Zapata,4.6,107,89.9,2016,Mendoza,Argentina,-34.787093,-68.4381868
Malbec de Purcari 2018,Moldova,South Eastern,Château Purcari,4.1,107,11.98,2018,South Eastern,Moldova,47.25,28.58333
Esprit de Granit Saint-Joseph 2012,France,Saint-Joseph,Cave de Tain,4.0,107,27.93,2012,Saint-Joseph,France,49.5344534,-1.529802
Bachgart Blauburgunder 2016,Italy,Südtirol - Alto Adige,Klaus Lentsch,3.8,107,19.9,2016,Südtirol - Alto Adige,Italy,46.441472,11.282121
Crianza 2016,Spain,Rioja,Campo Viejo,3.5,1070,7.99,2016,Rioja,Spain,42.3285528,-2.4674917
Margaux de Brane (Margaux de Henri Lurton) 2014,France,Margaux,Château Brane-Cantenac,3.8,1070,34.2,2014,Margaux,France,45.0463335,-0.6729117
Shiraz 2017,South Africa,Swartland,Allesverloren,3.6,1070,10.9,2017,Swartland,South Africa,-33.29356,18.5993825
Rubesco Rosso di Torgiano 2016,Italy,Torgiano,Lungarotti,3.7,1071,9.8,2016,Torgiano,Italy,43.028542,12.44136
Yamhill Cuvée Pinot Noir 2014,United States,Willamette Valley,Domaine Serene,4.3,1071,59.0,2014,Willamette Valley,United States,44.9086731,-123.0022929
Gran Enemigo 2015,Argentina,Mendoza,El Enemigo,4.5,1072,62.39,2015,Mendoza,Argentina,-34.787093,-68.4381868
Macán Clásico 2015,Spain,Rioja,Benjamin de Rothschild - Vega Sicilia,4.3,1073,48.54,2015,Rioja,Spain,42.3285528,-2.4674917
Zinfandel 2016,United States,North Coast,Ghost Pines,3.9,1075,17.29,2016,North Coast,United States,41.506534,-81.6939953
Reserve Malbec 2016,Argentina,Tupungato,Sophenia,3.8,1076,13.09,2016,Tupungato,Argentina,-33.3723648,-69.1479533
Saint-Estèphe 2011,France,Saint-Estèphe,Château de Pez,3.9,1077,36.9,2011,Saint-Estèphe,France,45.5925,0.6633333
Rosso di Montalcino Leopoldo Franceschi 2014,Italy,Rosso di Montalcino,Tenuta Il Poggione,3.9,1077,21.34,2014,Rosso di Montalcino,Italy,43.055612,11.3592953
Saint-Estèphe (Grand Cru Classé) 2005,France,Saint-Estèphe,Château Lafon-Rochet,4.1,1077,79.95,2005,Saint-Estèphe,France,45.5925,0.6633333
Diamond Collection Zinfandel (Red Label) 2016,United States,Napa Valley,Francis Ford Coppola,3.9,1078,21.39,2016,Napa Valley,United States,38.8484702,-94.413093
Overture N.V.,United States,Napa Valley,Opus One,4.4,10799,154.99,N.V.,Napa Valley,United States,38.8484702,-94.413093
Nèprica Cabernet Sauvignon 2018,Italy,Puglia,Tormaresca,3.5,108,8.33,2018,Puglia,Italy,40.9842539,16.6210027
Veneto Rosso del Bepi 2010,Italy,Veneto,Quintarelli Giuseppe,4.4,108,115.92,2010,Veneto,Italy,45.6476663,11.8665254
Taurasi 2015,Italy,Taurasi,Feudi di San Gregorio,4.1,108,17.45,2015,Taurasi,Italy,41.0083503,14.9574387
Tributo Carmenère 2018,Chile,Colchagua Valley,Caliterra,3.7,108,9.64,2018,Colchagua Valley,Chile,-30.0,-71.0
Lalande-de-Pomerol 2014,France,Lalande-de-Pomerol,Château Les Hauts-Conseillants,4.0,108,20.37,2014,Lalande-de-Pomerol,France,44.9560756,-0.2104434
Coteaux Du Languedoc La Clape L'Hospitalitas 2015,France,La Clape,Gérard Bertrand,4.4,108,71.39,2015,La Clape,France,42.9675839,2.5482974
Shiraz 2015,South Africa,Stellenbosch,Kaapzicht,4.0,108,15.55,2015,Stellenbosch,South Africa,-33.934444,18.869167
Gigondas Valbelle 2015,France,Gigondas,Château de Saint Cosme,4.3,108,49.95,2015,Gigondas,France,44.1641127,5.0051053
Primitivo di Manduria 2018,Italy,Primitivo di Manduria,Terre di Campo Sasso,4.1,108,8.28,2018,Primitivo di Manduria,Italy,40.4002788,17.6374622
Redhill Pinotage 2017,South Africa,Stellenbosch,Simonsig,4.2,108,19.4,2017,Stellenbosch,South Africa,-33.934444,18.869167
Finca Dofí 2017,Spain,Priorat,Álvaro Palacios,4.4,108,69.95,2017,Priorat,Spain,41.2137983,0.8116236
Unique Selection 2015,Chile,Colchagua Valley,Siegel,4.2,108,28.9,2015,Colchagua Valley,Chile,-30.0,-71.0
Sud Malvasia Nera 2016,Italy,Salento,San Marzano,3.9,108,7.25,2016,Salento,Italy,40.248604,15.190058
Alboreto Nobile di Montepulciano 2016,Italy,Vino Nobile di Montepulciano,Talosa,3.9,108,14.13,2016,Vino Nobile di Montepulciano,Italy,43.0716467,11.8054771
Tempranillo Reserva 2010,Spain,Rioja,Bodegas Amaren,4.2,108,34.9,2010,Rioja,Spain,42.3285528,-2.4674917
Bordeaux Supérieur 2017,France,Bordeaux Supérieur,Château Picon,3.5,108,7.35,2017,Bordeaux Supérieur,France,44.884045,-0.562129
Valpolicella Valpantena 2017,Italy,Valpolicella Valpantena,Costa Arente,3.8,108,15.67,2017,Valpolicella Valpantena,Italy,45.53333,11.0
Poggio Al Tufo Alicante 2015,Italy,Maremma Toscana,Tommasi,3.9,108,20.32,2015,Maremma Toscana,Italy,42.7027722,11.1367433
Conde de Valdemar Reserva 2012,Spain,Rioja,Bodegas Valdemar,4.0,108,13.26,2012,Rioja,Spain,42.3285528,-2.4674917
Rondeur Appassimento 2018,France,Pays d'Oc,Domaine La Grange,4.2,108,9.37,2018,Pays d'Oc,France,43.604764,1.4540399
Zarihs Syrah 2016,Spain,Campo de Borja,Borsao,4.1,108,15.69,2016,Campo de Borja,Spain,41.7865415,-1.5058323
Merlot Selección 2016,Spain,Extremadura,Coloma,4.0,108,11.95,2016,Extremadura,Spain,39.1748426,-6.1529891
Tinto 2000,Spain,Castilla y León,Dehesa La Granja,4.1,108,35.0,2000,Castilla y León,Spain,41.55005,-5.1387401
Siebeneich Merlot Riserva 2016,Italy,Südtirol - Alto Adige,Colterenzio (Schreckbichl),3.8,108,19.01,2016,Südtirol - Alto Adige,Italy,46.441472,11.282121
Cabernet Sauvignon 2017,South Africa,Stellenbosch,Stark-Condé,3.8,108,11.99,2017,Stellenbosch,South Africa,-33.934444,18.869167
Amarone 2012,Italy,Amarone della Valpolicella,Musella,4.2,108,29.12,2012,Amarone della Valpolicella,Italy,42.83333,12.83333
Reserva 2012,Spain,Rioja,Ortega Ezquerro,3.9,108,13.95,2012,Rioja,Spain,42.3285528,-2.4674917
Palha Canas Tinto 2016,Portugal,Lisboa,Casa Santos Lima,3.6,108,8.9,2016,Lisboa,Portugal,38.7077507,-9.1365919
12 e Mezzo Primitivo del Salento 2017,Italy,Salento,Varvaglione,3.9,1080,7.25,2017,Salento,Italy,40.248604,15.190058
50 & 50 2013,Italy,Toscana,Capannelle,4.4,1081,112.0,2013,Toscana,Italy,43.4586541,11.1389204
Cabernet Sauvignon de Purcari 2017,Moldova,South Eastern,Château Purcari,4.1,1082,12.98,2017,South Eastern,Moldova,47.25,28.58333
Ca'Marcanda Promis Toscana 2017,Italy,Toscana,Gaja,4.0,1083,30.9,2017,Toscana,Italy,43.4586541,11.1389204
Cabernet Sauvignon - Merlot 2015,Spain,Somontano,Enate,3.6,1084,9.5,2015,Somontano,Spain,42.0883878,0.0994041
Conde de Valdemar Gran Reserva 2008,Spain,Rioja,Bodegas Valdemar,4.0,1084,19.99,2008,Rioja,Spain,42.3285528,-2.4674917
Whole Berry Cabernet Sauvignon 2017,South Africa,Robertson,Springfield Estate,4.1,1084,16.75,2017,Robertson,South Africa,-33.802222,19.883611
Clásico Garnacha 2018,Spain,Campo de Borja,Borsao,3.6,1085,5.99,2018,Campo de Borja,Spain,41.7865415,-1.5058323
Sideral 2017,Chile,Cachapoal Valley,Altaïr,4.2,1085,21.45,2017,Cachapoal Valley,Chile,-30.0,-71.0
Charles Wetmore Cabernet Sauvignon 2014,United States,Livermore Valley,Wente,4.0,1086,21.1,2014,Livermore Valley,United States,36.009638,-115.2831998
Saint-Estèphe 2012,France,Saint-Estèphe,Château de Pez,4.0,1089,33.9,2012,Saint-Estèphe,France,45.5925,0.6633333
Gran Reserva Cabernet Sauvignon 2017,Chile,Maipo Valley,Carmen,3.8,1089,11.65,2017,Maipo Valley,Chile,-30.0,-71.0
Mentor Cabernet 2013,Australia,Barossa,Peter Lehmann,3.9,109,32.69,2013,Barossa,Australia,-34.6134149,138.9385455
Montagne-Saint-Émilion 2016,France,Montagne-Saint-Émilion,Clos de Bouard,4.0,109,27.2,2016,Montagne-Saint-Émilion,France,44.9239804,-0.1798164
Les Cépages Cabernet Sauvignon 2018,France,Pays d'Oc,Baron Philippe de Rothschild,3.4,109,7.27,2018,Pays d'Oc,France,43.604764,1.4540399
L'Esprit Terroir La Clape 2015,France,La Clape,Château Rouquette Sur Mer,3.8,109,14.95,2015,La Clape,France,42.9675839,2.5482974
Saint-Émilion Grand Cru (Premier Grand Cru Classé) 2015,France,Saint-Émilion Grand Cru,Château Belair-Monange,4.3,109,224.95,2015,Saint-Émilion Grand Cru,France,44.847147,-0.547337
Pinot Noir 2017,United States,Central Coast,Ryder Estate,3.7,109,16.72,2017,Central Coast,United States,44.4190178,-124.0763817
Malbec 2018,France,Comté Tolosan,Carmelle,3.7,109,6.45,2018,Comté Tolosan,France,43.105511,5.844843
Merlot 2015,United States,Washington,Stimson Estate Cellars,3.6,109,8.29,2015,Washington,United States,38.8950368,-77.0365427
Blaufränkisch 2017,Austria,Burgenland,Krutzler,3.5,109,8.98,2017,Burgenland,Austria,47.5000001,16.4166666
I Sodi del Paretaio 2018,Italy,Chianti,Badia di Morrona,3.5,109,7.99,2018,Chianti,Italy,43.5824597,11.3168731
Villa Blanche Syrah 2017,France,Pays d'Oc,Calmel & Joseph,3.8,109,7.4,2017,Pays d'Oc,France,43.604764,1.4540399
Arbossar 2016,Spain,Priorat,Terroir Al Límit Soc. Lda,4.0,109,60.0,2016,Priorat,Spain,41.2137983,0.8116236
Amarone Della Valpolicella Marta Galli 2007,Italy,Amarone della Valpolicella,Le Ragose,4.3,109,59.9,2007,Amarone della Valpolicella,Italy,42.83333,12.83333
Vera Cruz Shiraz 2014,South Africa,Stellenbosch,Delheim,4.3,109,35.5,2014,Stellenbosch,South Africa,-33.934444,18.869167
Poggio d'Arna Toscana 2016,Italy,Toscana,Tenuta di Sesta,4.0,109,12.58,2016,Toscana,Italy,43.4586541,11.1389204
Contador Rioja 2014,Spain,Rioja,Bodega Contador (Benjamín Romeo),4.6,109,328.95,2014,Rioja,Spain,42.3285528,-2.4674917
Fronsac 2015,France,Fronsac,Château Moulin Haut-Laroque,4.0,109,22.37,2015,Fronsac,France,42.9509183,0.6487221
Pinot Noir *** 2014,Germany,Baden,Weingut Holger Koch,3.6,109,29.95,2014,Baden,Germany,53.0023496,9.0820955
Lemberger Trocken 2014,Germany,Württemberg,Grafen Neipperg,3.2,109,9.6,2014,Württemberg,Germany,48.3366504,9.0994058
Sestal 2014,Spain,Mallorca,Ses Talaioles,4.2,109,31.68,2014,Mallorca,Spain,39.613432,2.8829185
Pomerol 2012,France,Pomerol,Château Gombaude-Guillot,4.1,109,68.81,2012,Pomerol,France,44.9311234,-0.1999904
Priorat Cruor 2016,Spain,Priorat,Casa Gran del Siurana,4.1,109,20.99,2016,Priorat,Spain,41.2137983,0.8116236
Domaine de la Madone Beaujolais Le Perréon 2018,France,Beaujolais,Jean-Marc Despres,3.7,109,8.67,2018,Beaujolais,France,46.1186123,4.6156707
Saint-Estèphe 2016,France,Saint-Estèphe,Château Clauzet,3.8,109,24.75,2016,Saint-Estèphe,France,45.5925,0.6633333
Valpolicella Superiore 2014,Italy,Valpolicella,Allegrini,3.7,1092,13.16,2014,Valpolicella,Italy,45.5296706,10.9400217
The Scribbler Cabernet - Shiraz 2013,Australia,Barossa Valley,Yalumba,3.6,1093,20.76,2013,Barossa Valley,Australia,-34.5817132,138.9987872
Boom Boom! Syrah 2016,United States,Columbia Valley,Charles Smith,3.5,1093,18.42,2016,Columbia Valley,United States,46.1576117,-122.9748352
Margaux (Grand Cru Classé) 2010,France,Margaux,Château Prieuré-Lichine,4.2,1094,79.0,2010,Margaux,France,45.0463335,-0.6729117
Crianza Tempranillo 2016,Spain,Rioja,Baigorri,3.8,1097,12.6,2016,Rioja,Spain,42.3285528,-2.4674917
Berola 2014,Spain,Campo de Borja,Borsao,3.9,1098,14.5,2014,Campo de Borja,Spain,41.7865415,-1.5058323
Blaufränkisch 2017,Austria,Burgenland,Rosi Schuster,3.7,110,14.9,2017,Burgenland,Austria,47.5000001,16.4166666
Spätburgunder 2017,Germany,Ahr,Jean Stodden,3.5,110,12.4,2017,Ahr,Germany,50.4728741,6.9477258
Brunello di Montalcino Riserva 2011,Italy,Brunello di Montalcino,Biondi-Santi,4.5,110,447.43,2011,Brunello di Montalcino,Italy,43.3204995,11.3281859
Cabernet Sauvignon 2015,Argentina,Uco Valley,DiamAndes,3.8,110,16.99,2015,Uco Valley,Argentina,-34.0,-64.0
Italian Collection Tosca 2011,South Africa,Stellenbosch,Morgenster Estate,4.0,110,24.32,2011,Stellenbosch,South Africa,-33.934444,18.869167
Cabernet Sauvignon 2016,South Africa,Stellenbosch,Meerlust,4.1,110,21.34,2016,Stellenbosch,South Africa,-33.934444,18.869167
Saint-Émilion Grand Cru (Grand Cru Classé) 2005,France,Saint-Émilion Grand Cru,Clos des Jacobins,4.2,110,58.95,2005,Saint-Émilion Grand Cru,France,44.847147,-0.547337
Nero d'Avola 2018,Italy,Terre Siciliane,Fatascia,3.6,110,7.53,2018,Terre Siciliane,Italy,42.83333,12.83333
Givry 2017,France,Givry,Joseph Drouhin,3.9,110,19.4,2017,Givry,France,46.7831191,4.7432564
Bordeaux Réserve Rouge 2015,France,Bordeaux,Château Rauzan Despagne,3.4,110,18.9,2015,Bordeaux,France,44.841225,-0.5800364
Bricco Dei Merli Barbera d'Alba 2014,Italy,Barbera d'Alba,Elvio Cogno,3.6,110,19.95,2014,Barbera d'Alba,Italy,44.7712158,8.0435811
Bandol Rouge 2007,France,Bandol,Gros' Noré,3.9,110,59.0,2007,Bandol,France,43.1357717,5.7523647
Teldeschi Vineyard Zinfandel 2016,United States,Dry Creek Valley,Ravenswood,4.0,110,33.95,2016,Dry Creek Valley,United States,39.9545792,-119.9544961
Ornato Barolo 2015,Italy,Barolo,Pio Cesare,4.2,110,81.97,2015,Barolo,Italy,44.6108408,7.9428448
Colledilà Chianti Classico Gran Selezione 2016,Italy,Chianti Classico,Ricasoli,4.2,110,45.0,2016,Chianti Classico,Italy,43.3930219,11.3088538
Pomerol 2013,France,Pomerol,Château La Grave (Trigant de Boisset),3.8,110,31.2,2013,Pomerol,France,44.9311234,-0.1999904
1921 Primitivo di Manduria Riserva 2012,Italy,Primitivo di Manduria,Varvaglione,4.1,110,39.9,2012,Primitivo di Manduria,Italy,40.4002788,17.6374622
Martelo Reserva 2012,Spain,Rioja,Torre de Oña,4.0,110,28.41,2012,Rioja,Spain,42.3285528,-2.4674917
Rosso di Montepulciano Prugnolo 2017,Italy,Rosso di Montepulciano,Boscarelli,3.7,110,12.9,2017,Rosso di Montepulciano,Italy,43.0921014,11.7818472
Valley Oaks Cabernet Sauvignon 2016,United States,California,Fetzer,3.6,1102,11.19,2016,California,United States,36.7014631,-118.755997
Saint-Julien (Grand Cru Classé) 2005,France,Saint-Julien,Château Branaire-Ducru,4.2,1103,88.95,2005,Saint-Julien,France,47.4019947,5.1364639
The Pundit 2016,United States,Columbia Valley,Tenet Wines,3.9,1104,27.99,2016,Columbia Valley,United States,46.1576117,-122.9748352
Pinot Noir 2016,United States,Los Carneros,Black Stallion,3.9,1105,34.32,2016,Los Carneros,United States,34.4403502,-119.8493992
Don Maximiano Founder's Reserve 2015,Chile,Aconcagua Valley,Errazuriz,4.4,1106,83.6,2015,Aconcagua Valley,Chile,-30.0,-71.0
Marne 180 Amarone della Valpolicella 2015,Italy,Amarone della Valpolicella,Tedeschi,4.3,1106,31.9,2015,Amarone della Valpolicella,Italy,42.83333,12.83333
Chronicon Montepulciano d'Abruzzo 2013,Italy,Montepulciano d'Abruzzo,Cantina Zaccagnini,3.9,1106,11.95,2013,Montepulciano d'Abruzzo,Italy,42.1565463,14.6066804
Emilien 2015,France,Côtes de Bordeaux,Château le Puy,4.0,1106,39.9,2015,Côtes de Bordeaux,France,44.6044102,-0.1818567
Pinot Nero 2016,Italy,Südtirol - Alto Adige,Castel Sallegg,3.6,111,11.5,2016,Südtirol - Alto Adige,Italy,46.441472,11.282121
Single Estate Red 2015,Portugal,Alentejano,Azamor,3.9,111,9.65,2015,Alentejano,Portugal,38.8421261,-7.5871012
Pinot Noir 2018,Austria,Neusiedlersee,Pittnauer,3.8,111,11.95,2018,Neusiedlersee,Austria,47.8030761,16.6469854
Fronsac 2013,France,Fronsac,Château Moulin Haut-Laroque,3.8,111,17.5,2013,Fronsac,France,42.9509183,0.6487221
Pinot Noir 2018,Germany,Pfalz,Matthias Gaul,3.7,111,9.9,2018,Pfalz,Germany,53.8156324,13.3702287
Vürsù Barbaresco Gallina 2014,Italy,Barbaresco,La Spinetta,4.3,111,115.7,2014,Barbaresco,Italy,44.7254469,8.0806959
Montesodi Toscana 2016,Italy,Toscana,Castello Nipozzano,4.2,111,44.57,2016,Toscana,Italy,43.4586541,11.1389204
Colle Ambro Rosso Piceno 2017,Italy,Rosso Piceno,Garofoli,3.5,111,7.9,2017,Rosso Piceno,Italy,42.9446956,13.8100261
AN/2 2018,Spain,Mallorca,Ànima Negra,4.1,111,19.99,2018,Mallorca,Spain,39.613432,2.8829185
Oraison Côtes du Rhône 2016,France,Côtes-du-Rhône,Badet Clement,3.4,111,8.5,2016,Côtes-du-Rhône,France,44.7667285,4.8528701
Etna San Lorenzo Rosso 2017,Italy,Etna,Tenuta delle Terre Nere,4.2,111,39.9,2017,Etna,Italy,37.7510251,14.9940321
Negroamaro 2017,Italy,Puglia,A Mano,3.5,111,6.75,2017,Puglia,Italy,40.9842539,16.6210027
Breg Rosso 2004,Italy,Venezia Giulia,Gravner,4.2,111,95.55,2004,Venezia Giulia,Italy,45.6528943,13.7804956
Gigondas Le Claux 2011,France,Gigondas,Château de Saint Cosme,4.3,111,59.95,2011,Gigondas,France,44.1641127,5.0051053
Côtes du Rhône Villages Sablet 2012,France,Côtes-du-Rhône-Villages 'Sablet',Château du Trignon,3.8,111,10.67,2012,Côtes-du-Rhône-Villages 'Sablet',France,44.192483,5.005664
Paleo 2016,Italy,Toscana,Le Macchiole,4.5,111,92.05,2016,Toscana,Italy,43.4586541,11.1389204
Dominio de Fontana Garnacha - Syrah 2017,Spain,Uclés,Bodegas Fontana,3.6,111,7.36,2017,Uclés,Spain,39.9804328,-2.8615799
Rosso di Montalcino 2017,Italy,Rosso di Montalcino,Casanova di Neri,4.0,111,20.9,2017,Rosso di Montalcino,Italy,43.055612,11.3592953
Carchelo (C) 2017,Spain,Jumilla,Carchelo,3.6,111,8.92,2017,Jumilla,Spain,38.4735408,-1.3285417
Reserva Rioja (Finca Ygay) 2016,Spain,Rioja,Marqués de Murrieta,4.0,111,18.0,2016,Rioja,Spain,42.3285528,-2.4674917
Barrel Selection Cabernet Sauvignon 2018,Argentina,Uco Valley,Salentein,3.6,111,12.9,2018,Uco Valley,Argentina,-34.0,-64.0
Syrah 2016,South Africa,Stellenbosch,Zevenwacht,4.1,111,13.99,2016,Stellenbosch,South Africa,-33.934444,18.869167
Don Antonio Nero d'Avola (Riserva) 2016,Italy,Sicilia,Morgante,4.2,111,25.9,2016,Sicilia,Italy,37.587794,14.155048
Wunderwerk Spätburgunder 2014,Germany,Rheinhessen,Dreissigacker,3.8,111,27.0,2014,Rheinhessen,Germany,49.9045181,8.2711082
Clos d'Ora 2015,France,Minervois La Livinière,Gérard Bertrand,4.5,111,229.0,2015,Minervois La Livinière,France,43.3124595,2.6385734
Hommage à Jacques Perrin Châteauneuf-du-Pape 2016,France,Châteauneuf-du-Pape,Château de Beaucastel,4.6,111,515.0,2016,Châteauneuf-du-Pape,France,44.055989,4.8317351
Director's Cut Zinfandel 2015,United States,Dry Creek Valley,Francis Ford Coppola,4.1,1110,32.5,2015,Dry Creek Valley,United States,39.9545792,-119.9544961
Reserva Ribera del Duero 2014,Spain,Ribera del Duero,Condado de Oriza,3.7,1111,14.52,2014,Ribera del Duero,Spain,41.6657566,-3.6863295
Amarone della Valpolicella Classico 2015,Italy,Amarone della Valpolicella Classico,Allegrini,4.3,1111,50.69,2015,Amarone della Valpolicella Classico,Italy,42.83333,12.83333
Châteauneuf-du-Pape 2015,France,Châteauneuf-du-Pape,E. Guigal,4.1,1112,32.54,2015,Châteauneuf-du-Pape,France,44.055989,4.8317351
Reserve Pinot Noir 2014,Argentina,Uco Valley,Salentein,3.8,1114,15.69,2014,Uco Valley,Argentina,-34.0,-64.0
Malbec 2018,Argentina,Mendoza,Argento,3.6,1117,9.99,2018,Mendoza,Argentina,-34.787093,-68.4381868
Rioja Reserva 2015,Spain,Rioja,Marqués de Riscal,4.1,11170,15.5,2015,Rioja,Spain,42.3285528,-2.4674917
Moulis-en-Médoc 2014,France,Moulis-en-Médoc,Château Chasse-Spleen,3.9,1118,43.77,2014,Moulis-en-Médoc,France,45.0564852,-0.7736381
Plumbago Nero d'Avola Sicilia 2016,Italy,Sicilia,Planeta,3.6,1118,13.93,2016,Sicilia,Italy,37.587794,14.155048
Vigna Corvino Montepulciano d'Abruzzo 2018,Italy,Montepulciano d'Abruzzo,Contesa,3.8,112,6.32,2018,Montepulciano d'Abruzzo,Italy,42.1565463,14.6066804
Cabernet Sauvignon 2016,Romania,Samburesti,Castel Bolovanu,3.3,112,7.9,2016,Samburesti,Romania,44.8063848,24.3993993
Códice 2017,Spain,Castilla y León,Dominio de Eguren,3.5,112,5.75,2017,Castilla y León,Spain,41.55005,-5.1387401
Pinot Noir 2018,South Africa,Walker Bay,Creation,3.9,112,18.99,2018,Walker Bay,South Africa,-34.518515,19.2880206
Aigle Les Murailles Rouge 2015,Switzerland,Aigle,Henri Badoux,3.7,112,23.17,2015,Aigle,Switzerland,46.3179006,6.9688929
Big G 2015,South Africa,Franschhoek,Holden Manz,4.2,112,23.9,2015,Franschhoek,South Africa,-33.909167,19.119444
Barbera d'Alba Aves 2018,Italy,Barbera d'Alba,Comm. G.B. Burlotto,4.0,112,24.0,2018,Barbera d'Alba,Italy,44.7712158,8.0435811
Chinon Rouge 2015,France,Chinon,Domaine Gouron,3.5,112,8.75,2015,Chinon,France,47.1667182,0.2402095
Bardolino 2016,Italy,Bardolino,Corte Giara,3.5,112,5.9,2016,Bardolino,Italy,45.5475595,10.7242145
Provident Shiraz 2016,Australia,Barossa Valley,Soul Growers,3.6,112,24.37,2016,Barossa Valley,Australia,-34.5817132,138.9987872
Perdixi 2013,Italy,Isola dei Nuraghi,Olianas,3.7,112,19.5,2013,Isola dei Nuraghi,Italy,40.7092886,9.6990329
Puisseguin Saint-Émilion 2013,France,Puisseguin-Saint-Émilion,Château Moulin de Curat,3.4,112,10.75,2013,Puisseguin-Saint-Émilion,France,44.924616,-0.079579
Pissarres 2017,Spain,Priorat,Costers del Priorat,4.0,112,12.85,2017,Priorat,Spain,41.2137983,0.8116236
Arcidiavolo 2008,Italy,Toscana,Teruzzi & Puthod,4.2,112,17.45,2008,Toscana,Italy,43.4586541,11.1389204
Colheita Alentejano Tinto 2015,Portugal,Alentejano,Monte Cascas,3.6,112,9.65,2015,Alentejano,Portugal,38.8421261,-7.5871012
Malbec 2013,Argentina,Uco Valley,DiamAndes,3.6,1122,16.56,2013,Uco Valley,Argentina,-34.0,-64.0
Bordeaux Rouge 2014,France,Bordeaux,Baron Philippe de Rothschild,3.2,1123,7.95,2014,Bordeaux,France,44.841225,-0.5800364
Pauillac (Grand Cru Classé) 2011,France,Pauillac,Château Pichon Baron,4.4,1125,139.0,2011,Pauillac,France,45.1995626,-0.7484994
Pauillac (Grand Cru Classé) 2011,France,Pauillac,Château Grand-Puy-Lacoste,4.2,1125,76.95,2011,Pauillac,France,45.1995626,-0.7484994
Selvarossa Riserva 2014,Italy,Salice Salentino,Cantine due Palme,4.0,1125,14.95,2014,Salice Salentino,Italy,40.3856618,17.9637483
Rocca Guicciarda Chianti Classico Riserva 2016,Italy,Chianti Classico,Ricasoli,3.7,1129,13.79,2016,Chianti Classico,Italy,43.3930219,11.3088538
Diamond Collection Malbec (Celestial Blue Label) 2017,United States,Napa Valley,Francis Ford Coppola,3.6,113,26.31,2017,Napa Valley,United States,38.8484702,-94.413093
Rioja Tempranillo Elaboración Especial 2017,Spain,Rioja,Beronia,3.7,113,11.99,2017,Rioja,Spain,42.3285528,-2.4674917
Pomerol 2015,France,Pomerol,Château Moulinet-Lasserre,4.1,113,46.79,2015,Pomerol,France,44.9311234,-0.1999904
1300 Merlot 2016,Argentina,Tupungato,Andeluna,3.3,113,7.7,2016,Tupungato,Argentina,-33.3723648,-69.1479533
Tradition Spätburgunder 2017,Germany,Franken,Rudolf Fürst,3.8,113,16.9,2017,Franken,Germany,50.5011427,7.2341043
Nebbiolo Langhe 2018,Italy,Langhe,Giacomo Fenocchio,3.7,113,16.9,2018,Langhe,Italy,44.493036,7.974639
Pinot Noir 2016,United States,California,Spellbound,3.6,113,14.49,2016,California,United States,36.7014631,-118.755997
Tenuta Belguardo 2015,Italy,Maremma Toscana,Mazzei,3.8,113,49.0,2015,Maremma Toscana,Italy,42.7027722,11.1367433
Kalkmergel Spätburgunder 2014,Germany,Pfalz,Knipser,3.8,113,23.38,2014,Pfalz,Germany,53.8156324,13.3702287
Merlot 2015,Italy,Südtirol - Alto Adige,Alois Lageder,3.7,113,17.79,2015,Südtirol - Alto Adige,Italy,46.441472,11.282121
Châteauneuf-du-Pape 2017,France,Châteauneuf-du-Pape,Clos des Papes (Paul Avril),4.2,113,86.76,2017,Châteauneuf-du-Pape,France,44.055989,4.8317351
Chianti Classico 2016,Italy,Chianti Classico,Monte Guelfo,3.4,113,8.29,2016,Chianti Classico,Italy,43.3930219,11.3088538
Valdehermoso Crianza 2016,Spain,Ribera del Duero,Valderiz,3.7,113,13.5,2016,Ribera del Duero,Spain,41.6657566,-3.6863295
Bel Noce Primitivo 2017,Italy,Salento,Cantina Rosa del Golfo,4.2,113,9.78,2017,Salento,Italy,40.248604,15.190058
Moulin des Costes Bandol Rouge 2011,France,Bandol,Domaines Bunan,3.7,113,115.0,2011,Bandol,France,43.1357717,5.7523647
Sapaio Bolgheri Superiore 2016,Italy,Bolgheri Superiore,Podere Sapaio,4.2,113,54.81,2016,Bolgheri Superiore,Italy,44.46006,7.10425
Rosso di Montalcino 2015,Italy,Rosso di Montalcino,Poggio Landi,3.7,113,13.5,2015,Rosso di Montalcino,Italy,43.055612,11.3592953
Côtes du Rhône 2016,France,Côtes-du-Rhône,Rocca Maura,3.4,113,7.5,2016,Côtes-du-Rhône,France,44.7667285,4.8528701
Filo di Seta Brunello di Montalcino 2012,Italy,Brunello di Montalcino,Castello Romitorio,4.3,113,52.87,2012,Brunello di Montalcino,Italy,43.3204995,11.3281859
Saint-Émilion Grand Cru 2011,France,Saint-Émilion Grand Cru,Clos Dubreuil,4.1,113,63.2,2011,Saint-Émilion Grand Cru,France,44.847147,-0.547337
Quinta Generation (5th) 2016,Chile,Colchagua Valley,Casa Silva,4.2,113,20.42,2016,Colchagua Valley,Chile,-30.0,-71.0
Cuvée X 2015,Germany,Pfalz,Knipser,4.1,113,40.65,2015,Pfalz,Germany,53.8156324,13.3702287
Pauillac (Grand Cru Classé) 2017,France,Pauillac,Château Pichon Longueville Comtesse de Lalande,4.4,113,154.99,2017,Pauillac,France,45.1995626,-0.7484994
Bachgart Blauburgunder 2015,Italy,Südtirol - Alto Adige,Klaus Lentsch,3.8,113,42.9,2015,Südtirol - Alto Adige,Italy,46.441472,11.282121
Priorat 2017,Spain,Priorat,Clos Mogador,4.5,113,77.01,2017,Priorat,Spain,41.2137983,0.8116236
Hillside Select Cabernet Sauvignon 2015,United States,Stags Leap District,Shafer,4.6,113,378.98,2015,Stags Leap District,United States,36.578676,-79.389888
Bernoota Shiraz - Cabernet 2016,Australia,Langhorne Creek,Lake Breeze Wines,3.9,113,20.75,2016,Langhorne Creek,Australia,-35.295938,139.0364451
Reserva Carmenère 2018,Chile,Colchagua Valley,Caliterra,3.6,113,6.33,2018,Colchagua Valley,Chile,-30.0,-71.0
Small Hill Red 2017,Austria,Burgenland,Leo Hillinger,3.6,113,9.17,2017,Burgenland,Austria,47.5000001,16.4166666
Margaux (Grand Cru Classé) 2011,France,Margaux,Château Lascombes,4.2,1131,89.0,2011,Margaux,France,45.0463335,-0.6729117
Merlot 2016,United States,Columbia Valley,Columbia Winery,3.7,1132,14.84,2016,Columbia Valley,United States,46.1576117,-122.9748352
Pessac-Léognan (Grand Cru Classé de Graves) 2006,France,Pessac-Léognan,Château Pape Clément,4.4,1132,129.0,2006,Pessac-Léognan,France,44.718997,-0.60521
Conde de Valdemar Gran Reserva 2010,Spain,Rioja,Bodegas Valdemar,4.0,1134,18.79,2010,Rioja,Spain,42.3285528,-2.4674917
Syrah 2017,Italy,Terre Siciliane,Cusumano,3.8,1134,7.9,2017,Terre Siciliane,Italy,42.83333,12.83333
Brunello di Montalcino 2012,Italy,Brunello di Montalcino,Tenute Silvio Nardi,4.1,1136,38.3,2012,Brunello di Montalcino,Italy,43.3204995,11.3281859
Ganadero 2017,Spain,Méntrida,Canopy,3.6,114,7.45,2017,Méntrida,Spain,40.2379032,-4.1945535
AS Ladieras 2015,Spain,Campo de Borja,Cuevas de Arom,3.8,114,19.24,2015,Campo de Borja,Spain,41.7865415,-1.5058323
Bin 3 Merlot - Cabernet Sauvignon 2016,South Africa,Stellenbosch,Kaapzicht,3.8,114,13.8,2016,Stellenbosch,South Africa,-33.934444,18.869167
Gimblett Gravels Le Sol 2015,New Zealand,Gimblett Gravels,Craggy Range,4.3,114,85.27,2015,Gimblett Gravels,New Zealand,-39.5972737,176.7363498
Pomerol 2016,France,Pomerol,Château La Renaissance,4.1,114,24.27,2016,Pomerol,France,44.9311234,-0.1999904
Memorious Pinot Noir 2015,United States,Sta. Rita Hills,Domaine de la Côte,4.2,114,54.0,2015,Sta. Rita Hills,United States,55.466733,-131.806174
Baron Nathaniel Pauillac 2016,France,Pauillac,Baron Philippe de Rothschild,4.2,114,28.08,2016,Pauillac,France,45.1995626,-0.7484994
Saga Médoc 2016,France,Médoc,Barons de Rothschild (Lafite),3.5,114,10.65,2016,Médoc,France,49.3524933,6.1542002
Haut-Médoc 2014,France,Haut-Médoc,Château Haut-Bellevue,3.8,114,13.15,2014,Haut-Médoc,France,45.1445995,-0.7357492
Cenit 2012,Chile,Colchagua Valley,Caliterra,4.3,114,38.94,2012,Colchagua Valley,Chile,-30.0,-71.0
Maldoror 2005,France,Côtes de Bourg,Château Fougas,3.7,114,43.95,2005,Côtes de Bourg,France,45.0343476,-0.4954363
Cuvée Juveniles 2017,Australia,Barossa,Torbreck,3.9,114,24.75,2017,Barossa,Australia,-34.6134149,138.9385455
Cabernet Veneto 2016,Italy,Veneto,Torresella,3.3,114,6.77,2016,Veneto,Italy,45.6476663,11.8665254
Pessac-Léognan (Grand Cru Classé de Graves) 2017,France,Pessac-Léognan,Domaine de Chevalier,4.1,114,77.01,2017,Pessac-Léognan,France,44.718997,-0.60521
Purosangue Morellino di Scansano Sangiovese Riserva 2016,Italy,Morellino di Scansano,Terenzi,3.8,114,25.26,2016,Morellino di Scansano,Italy,42.7125537,11.2280516
Colline Côtes du Rhône Rouge 2018,France,Côtes-du-Rhône,La Cabotte,3.7,114,8.98,2018,Côtes-du-Rhône,France,44.7667285,4.8528701
Estate Perigee (Seven Hills Vineyard) 2013,United States,Walla Walla Valley,L'Ecole No 41,4.3,114,49.5,2013,Walla Walla Valley,United States,36.2399704,-112.2245586
Pinot Noir Bourgogne 2018,France,Bourgogne,Terres Dorées,3.9,114,16.9,2018,Bourgogne,France,49.3555104,4.0681417
Frauenfeld St. Laurent 2015,Austria,Thermenregion,Johanneshof Reinisch,4.1,114,19.35,2015,Thermenregion,Austria,48.0463345,16.270762
Signature Malbec 2017,Argentina,Lujan de Cuyo,Susana Balbo,3.9,1143,24.75,2017,Lujan de Cuyo,Argentina,-33.1085238,-69.0129984
Crozes-Hermitage Les Jalets 2016,France,Crozes-Hermitage,Paul Jaboulet Aîné,3.7,1143,19.39,2016,Crozes-Hermitage,France,45.0907,4.84592
Ripassa Valpolicella Ripasso Superiore 2015,Italy,Valpolicella Ripasso,Zenato,4.2,11433,19.99,2015,Valpolicella Ripasso,Italy,42.83333,12.83333
La Segreta Il Rosso 2017,Italy,Sicilia,Planeta,3.6,1145,8.36,2017,Sicilia,Italy,37.587794,14.155048
Zinfandel 2017,United States,California,Woodbridge by Robert Mondavi,3.8,1147,8.39,2017,California,United States,36.7014631,-118.755997
Margaux (Grand Cru Classé) 2009,France,Margaux,Château Brane-Cantenac,4.2,1149,96.99,2009,Margaux,France,45.0463335,-0.6729117
Cabernet Sauvignon 2014,Chile,Maipo Valley,Primus,3.8,1149,14.4,2014,Maipo Valley,Chile,-30.0,-71.0
La Luna e I Falo Nizza 2015,Italy,Barbera d'Asti,Vite Colte,3.7,115,17.95,2015,Barbera d'Asti,Italy,44.8524808,8.2414532
Three Pines Cabernet Sauvignon 2016,South Africa,Stellenbosch,Stark-Condé,4.0,115,38.99,2016,Stellenbosch,South Africa,-33.934444,18.869167
Γουμένισσα (Goumenissa) 2015,Greece,Goumenissa,Chatzivaritis Estate,3.7,115,20.0,2015,Goumenissa,Greece,40.9466441,22.4519413
Toscana Rosso 2018,Italy,Toscana,Tenuta Il Poggione,3.6,115,7.99,2018,Toscana,Italy,43.4586541,11.1389204
Le Benjamin de Beauregard Pomerol 2016,France,Pomerol,Château Beauregard,3.9,115,34.9,2016,Pomerol,France,44.9311234,-0.1999904
Vigna Del Mandorlo Dolcetto d'Alba 2016,Italy,Dolcetto d'Alba,Elvio Cogno,3.5,115,13.95,2016,Dolcetto d'Alba,Italy,42.83333,12.83333
Estate Vineyards Syrah (Shiraz) 2017,South Africa,Stellenbosch,Rust En Vrede,4.3,115,23.75,2017,Stellenbosch,South Africa,-33.934444,18.869167
Prima 2006,France,Cadillac - Côtes de Bordeaux,Château Carignan,3.7,115,15.15,2006,Cadillac - Côtes de Bordeaux,France,44.700287,-0.389212
Cabernet Riserva 2016,Italy,Südtirol - Alto Adige,Alois Lageder,3.7,115,20.19,2016,Südtirol - Alto Adige,Italy,46.441472,11.282121
Centine Rosso 2018,Italy,Toscana,Banfi,3.7,115,8.5,2018,Toscana,Italy,43.4586541,11.1389204
Sangiovese di Romagna Superiore Riserva 2016,Italy,Romagna,Poderi dal Nespoli,3.9,115,16.64,2016,Romagna,Italy,44.4914458,11.3435713
Powerline Syrah 2016,United States,Walla Walla Valley,K Vintners,4.3,115,60.84,2016,Walla Walla Valley,United States,36.2399704,-112.2245586
Granja Gran Reserva Rioja 2011,Spain,Rioja,Remelluri,4.3,115,49.75,2011,Rioja,Spain,42.3285528,-2.4674917
Carnevalè Riserva Cannonau di Sardegna 2015,Italy,Cannonau di Sardegna,Giuseppe Sedilesu,4.1,115,25.83,2015,Cannonau di Sardegna,Italy,40.2568502,9.6218801
Eloy Escudero Crianza 2014,Spain,Ribera del Duero,Bodegas y Vinedos Escudero,3.7,115,12.43,2014,Ribera del Duero,Spain,41.6657566,-3.6863295
Rouge 2011,France,Côtes Catalanes,Domaine de l'Horizon,3.9,115,77.01,2011,Côtes Catalanes,France,42.74503,2.896873
Gran Reserva 2012,Spain,Rioja,Rioja Vega,3.9,115,18.5,2012,Rioja,Spain,42.3285528,-2.4674917
Negroamaro Salento Maru 2018,Italy,Salento,Castello Monaci,3.5,115,7.4,2018,Salento,Italy,40.248604,15.190058
1300 Malbec 2018,Argentina,Tupungato,Andeluna,3.7,1150,7.7,2018,Tupungato,Argentina,-33.3723648,-69.1479533
Gran Reserva Rioja 2008,Spain,Rioja,Lan,3.9,1152,17.25,2008,Rioja,Spain,42.3285528,-2.4674917
Cabernet Sauvignon 2017,United States,California,Barefoot,3.3,1155,6.0,2017,California,United States,36.7014631,-118.755997
Cabernet Sauvignon - Merlot 2014,Spain,Somontano,Enate,3.6,1156,19.89,2014,Somontano,Spain,42.0883878,0.0994041
Haut-Médoc 2014,France,Haut-Médoc,Château Beaumont,3.6,1156,15.9,2014,Haut-Médoc,France,45.1445995,-0.7357492
Castelgreve Chianti Classico Riserva 2015,Italy,Chianti Classico,Castelli del Grevepesa,3.6,1157,17.84,2015,Chianti Classico,Italy,43.3930219,11.3088538
Beaujolais-Villages 2019,France,Beaujolais-Villages,Joseph Drouhin,3.9,116,12.14,2019,Beaujolais-Villages,France,46.055504,4.592934
Jester Cabernet Sauvignon 2017,Australia,McLaren Vale,Mitolo,3.6,116,18.92,2017,McLaren Vale,Australia,-35.2172617,138.5416998
Chianti 2018,Italy,Chianti,Monte Guelfo,3.3,116,7.75,2018,Chianti,Italy,43.5824597,11.3168731
Millenium Reserva 2009,Spain,Ribera del Duero,Tinto Pesquera,4.5,116,82.86,2009,Ribera del Duero,Spain,41.6657566,-3.6863295
Il Messo Governo Toscana 2017,Italy,Toscana,Barbanera,3.7,116,7.79,2017,Toscana,Italy,43.4586541,11.1389204
Reserve Cabernet Sauvignon 2014,United States,Oakville,Robert Mondavi,4.2,116,178.96,2014,Oakville,United States,41.0998174,-91.0444022
La Gravette de Certan Pomerol 2013,France,Pomerol,Vieux Château Certan,4.2,116,48.5,2013,Pomerol,France,44.9311234,-0.1999904
Grenache Noir 2018,France,Pays d'Oc,Paul Mas,3.8,116,5.5,2018,Pays d'Oc,France,43.604764,1.4540399
Cabernet Sauvignon 2015,South Africa,Western Cape,Laborie,3.4,116,7.18,2015,Western Cape,South Africa,-33.546977,20.72753
Maestro Raro 2014,Italy,Toscana,Fèlsina,4.0,116,50.67,2014,Toscana,Italy,43.4586541,11.1389204
Buzzard Kloof Syrah 2014,South Africa,Stellenbosch,Rustenberg,3.6,116,19.8,2014,Stellenbosch,South Africa,-33.934444,18.869167
Grand Reserve 2014,South Africa,Stellenbosch,Delheim,4.1,116,26.95,2014,Stellenbosch,South Africa,-33.934444,18.869167
Aussières Rouge (Red Blend) 2017,France,Pays d'Oc,Château d’Aussières,3.5,116,8.32,2017,Pays d'Oc,France,43.604764,1.4540399
Mount Edelstone Shiraz 2014,Australia,Eden Valley,Henschke,4.4,116,179.0,2014,Eden Valley,Australia,-34.6666979,139.1299649
Amarone della Valpolicella Classico 2016,Italy,Amarone della Valpolicella Classico,Allegrini,4.1,116,50.6,2016,Amarone della Valpolicella Classico,Italy,42.83333,12.83333
Saint-Julien (Grand Cru Classé) 2017,France,Saint-Julien,Château Léoville Barton,4.2,116,95.53,2017,Saint-Julien,France,47.4019947,5.1364639
Reserve 2015,South Africa,Western Cape,Roodeberg,3.5,116,9.95,2015,Western Cape,South Africa,-33.546977,20.72753
Saint-Estèphe 2017,France,Saint-Estèphe,Château Phélan Ségur,3.7,116,44.84,2017,Saint-Estèphe,France,45.5925,0.6633333
Santa Rita Rosso di Valtelina 2014,Italy,Valtellina,Mamete Prevostini,3.5,116,11.5,2014,Valtellina,Italy,46.18333,9.91667
Limited Release Cabernet Sauvignon 2014,Chile,Rapel Valley,Sutil,4.1,116,11.8,2014,Rapel Valley,Chile,-30.0,-71.0
1851 Reserva Cabernet Sauvignon 2017,Chile,Colchagua Valley,Ochagavia,3.3,116,11.47,2017,Colchagua Valley,Chile,-30.0,-71.0
Château Romassan Rouge 2016,France,Bandol,Domaines Ott,3.9,116,33.9,2016,Bandol,France,43.1357717,5.7523647
Pauillac (Grand Cru Classé) 2014,France,Pauillac,Château d'Armailhac,4.0,1160,94.8,2014,Pauillac,France,45.1995626,-0.7484994
Pauillac (Grand Cru Classé) 2010,France,Pauillac,Château Pichon Baron,4.5,1163,249.0,2010,Pauillac,France,45.1995626,-0.7484994
Pinot Noir 2016,New Zealand,Marlborough,Cloudy Bay,3.9,1163,39.95,2016,Marlborough,New Zealand,-41.4744747,173.8330263
St. Henri Shiraz 2013,Australia,South Australia,Penfolds,4.4,1165,109.13,2013,South Australia,Australia,-30.5343665,135.6301212
Pinot Noir 2016,United States,Dundee Hills,Domaine Drouhin,4.2,1166,54.59,2016,Dundee Hills,United States,39.1716557,-94.5792892
Negru de Purcari 2015,Moldova,South Eastern,Château Purcari,4.4,1168,98.98,2015,South Eastern,Moldova,47.25,28.58333
Oakville Cabernet Sauvignon 2014,United States,Oakville,Robert Mondavi,4.2,1168,55.79,2014,Oakville,United States,41.0998174,-91.0444022
Douro Reserva Red 2016,Portugal,Douro,Quinta do Portal,4.0,1169,21.05,2016,Douro,Portugal,41.135684,-7.1166743
Saint-Julien (Grand Cru Classé) 2010,France,Saint-Julien,Château Branaire-Ducru,4.2,1169,87.24,2010,Saint-Julien,France,47.4019947,5.1364639
Saint-Julien (Grand Cru Classé) 2001,France,Saint-Julien,Château Léoville Barton,4.3,1169,108.95,2001,Saint-Julien,France,47.4019947,5.1364639
Reserva de Familia Syrah 2014,Spain,Lanzarote,El Grifo,4.2,117,33.95,2014,Lanzarote,Spain,29.0397081,-13.6362916
Oberbergener Bassgeige Spätburgunder 2017,Germany,Baden,Franz Keller,3.6,117,14.7,2017,Baden,Germany,53.0023496,9.0820955
Brolo del Figaretto Amarone della Valpolicella Valpantena 2015,Italy,Amarone della Valpolicella Valpantena,Corte Figaretto,4.2,117,29.5,2015,Amarone della Valpolicella Valpantena,Italy,45.53333,11.0
La Nieta 2007,Spain,Rioja,Viñedos de Páganos,4.6,117,83.95,2007,Rioja,Spain,42.3285528,-2.4674917
Merlot 2014,United States,California,Woodhaven,3.7,117,8.41,2014,California,United States,36.7014631,-118.755997
Èrema 2016,Italy,Isola dei Nuraghi,Siddura,3.8,117,14.57,2016,Isola dei Nuraghi,Italy,40.7092886,9.6990329
Saint-Julien (Grand Cru Classé) 2017,France,Saint-Julien,Château Léoville Poyferré,3.9,117,86.76,2017,Saint-Julien,France,47.4019947,5.1364639
Vigna di Sessina Chianti Classico Gran Selezione 2015,Italy,Chianti Classico,Dievole,4.4,117,42.0,2015,Chianti Classico,Italy,43.3930219,11.3088538
Bardolino Classico 2018,Italy,Bardolino Classico,Lenotti,3.5,117,4.7,2018,Bardolino Classico,Italy,42.83333,12.83333
Reserva Cabernet Sauvignon 2013,Brazil,Serra Gaúcha,Don Guerino,3.3,117,12.62,2013,Serra Gaúcha,Brazil,-29.1551147,-51.5153447
Brauneberger Klostergarten Pinot Noir*** 2014,Germany,Mosel,Markus Molitor,4.0,117,38.79,2014,Mosel,Germany,50.7810263,12.4780171
Valpolicella Ripasso Classico Superiore Il Vegro 2017,Italy,Valpolicella,Brigaldara,3.8,117,13.4,2017,Valpolicella,Italy,45.5296706,10.9400217
Barbera d'Alba 2016,Italy,Langhe,Franco Molino,4.1,117,11.9,2016,Langhe,Italy,44.493036,7.974639
Reserva Cabernet Sauvignon 2014,Spain,Valdepeñas,Viña Albali,3.4,117,5.99,2014,Valdepeñas,Spain,38.7594573,-3.3847392
Saint-Émilion Grand Cru (Grand Cru Classé) 2014,France,Saint-Émilion Grand Cru,Château La Serre,3.8,117,46.79,2014,Saint-Émilion Grand Cru,France,44.847147,-0.547337
Spätburgunder 2017,Germany,Baden,Shelter Winery,3.6,117,10.95,2017,Baden,Germany,53.0023496,9.0820955
Giorgio 2011,South Africa,Stellenbosch,Dalla Cia,4.2,117,59.0,2011,Stellenbosch,South Africa,-33.934444,18.869167
Rioja Gran Reserva 2011,Spain,Rioja,Marqués de Riscal,4.1,1170,41.04,2011,Rioja,Spain,42.3285528,-2.4674917
Margaux (Grand Cru Classé) 2005,France,Margaux,Château Brane-Cantenac,4.4,1171,119.95,2005,Margaux,France,45.0463335,-0.6729117
Montefalco Rosso 2016,Italy,Montefalco,Arnaldo-Caprai,3.7,1171,14.54,2016,Montefalco,Italy,42.8918739,12.6500673
Saint-Émilion Grand Cru (Premier Grand Cru Classé) 2005,France,Saint-Émilion Grand Cru,Château Figeac,4.5,1172,239.95,2005,Saint-Émilion Grand Cru,France,44.847147,-0.547337
Toscana 2015,Italy,Toscana,Tenuta Castiglioni,3.9,1174,38.5,2015,Toscana,Italy,43.4586541,11.1389204
The Stump Jump Grenache - Shiraz - Mourvedre 2016,Australia,McLaren Vale,d'Arenberg,3.6,1177,8.5,2016,McLaren Vale,Australia,-35.2172617,138.5416998
Finca Alejandro 2013,Spain,Castilla y León,Dehesa La Granja,3.8,1177,9.99,2013,Castilla y León,Spain,41.55005,-5.1387401
Chianti Classico Riserva 2013,Italy,Chianti Classico,Brancaia,3.9,1178,18.5,2013,Chianti Classico,Italy,43.3930219,11.3088538
Puro Corte 2018,Argentina,Mendoza,Dieter Meier,3.9,118,14.89,2018,Mendoza,Argentina,-34.787093,-68.4381868
Bardolino 2018,Italy,Bardolino,Cantina di Custoza,3.5,118,5.5,2018,Bardolino,Italy,45.5475595,10.7242145
La Baronnie Madeleine Chinon 2015,France,Chinon,Couly-Dutheil,3.8,118,16.69,2015,Chinon,France,47.1667182,0.2402095
Lagrein Schweizer 2017,Italy,Südtirol - Alto Adige,Franz Haas,3.8,118,24.46,2017,Südtirol - Alto Adige,Italy,46.441472,11.282121
Vindoro Negroamaro 2016,Italy,Salento,San Marzano,4.3,118,18.9,2016,Salento,Italy,40.248604,15.190058
Sasyr Sangiovese - Syrah Toscana 2016,Italy,Toscana,Rocca delle Macìe,3.9,118,9.26,2016,Toscana,Italy,43.4586541,11.1389204
Frans Malan Cape Blend 2016,South Africa,Stellenbosch,Simonsig,4.2,118,19.95,2016,Stellenbosch,South Africa,-33.934444,18.869167
Barolo Brunate 2015,Italy,Barolo,Ceretto,4.2,118,128.91,2015,Barolo,Italy,44.6108408,7.9428448
Toscana Merlot 2013,Italy,Toscana,Danzante,3.5,118,10.69,2013,Toscana,Italy,43.4586541,11.1389204
Saint Hilaire Vineyard Pinot Noir Réserve 2017,France,Pays d'Oc,Paul Mas,3.5,118,7.79,2017,Pays d'Oc,France,43.604764,1.4540399
Morellino di Scansano 2016,Italy,Morellino di Scansano,Aia Vecchia,3.6,118,8.72,2016,Morellino di Scansano,Italy,42.7125537,11.2280516
Barbaresco Bernardot 2014,Italy,Barbaresco,Ceretto,4.1,118,89.0,2014,Barbaresco,Italy,44.7254469,8.0806959
Margaux 2005,France,Margaux,Château La Gurgue,4.0,118,39.95,2005,Margaux,France,45.0463335,-0.6729117
Merlot 2018,South Africa,Swartland,Leopard’s Leap,3.3,118,7.75,2018,Swartland,South Africa,-33.29356,18.5993825
Barolo Castiglione 2014,Italy,Barolo,Vietti,4.1,1180,43.87,2014,Barolo,Italy,44.6108408,7.9428448
Pinot Noir 2017,New Zealand,Marlborough,Brancott Estate,3.3,1180,10.21,2017,Marlborough,New Zealand,-41.4744747,173.8330263
Saint-Julien (Grand Cru Classé) 2005,France,Saint-Julien,Château Beychevelle,4.4,1182,129.95,2005,Saint-Julien,France,47.4019947,5.1364639
Evenstad Reserve Pinot Noir 2013,United States,Willamette Valley,Domaine Serene,4.3,1182,108.46,2013,Willamette Valley,United States,44.9086731,-123.0022929
Submission Cabernet Sauvignon 2017,United States,California,689 - Six Eight Nine,3.9,1186,15.4,2017,California,United States,36.7014631,-118.755997
Médoc 2009,France,Médoc,Château La Cardonne,3.8,1187,25.92,2009,Médoc,France,49.3524933,6.1542002
Signature Pinotage 2018,South Africa,Western Cape,Spier,3.6,1188,6.5,2018,Western Cape,South Africa,-33.546977,20.72753
Bolgheri Superiore 2015,Italy,Bolgheri Superiore,Grattamacco,4.2,1188,55.19,2015,Bolgheri Superiore,Italy,44.46006,7.10425
Amarone della Valpolicella Classico 2015,Italy,Amarone della Valpolicella Classico,Biscardo,4.3,1189,26.06,2015,Amarone della Valpolicella Classico,Italy,42.83333,12.83333
Bosan Riserva Amarone della Valpolicella Classico 2008,Italy,Amarone della Valpolicella Classico,Cesari,4.2,119,56.0,2008,Amarone della Valpolicella Classico,Italy,42.83333,12.83333
Nebbiolo Coste Della Sesia 2017,Italy,Coste della Sesia,Travaglini,3.6,119,18.7,2017,Coste della Sesia,Italy,45.24504,8.52797
Sister Moon 2015,Italy,Toscana,Tenuta Il Palagio,4.2,119,42.95,2015,Toscana,Italy,43.4586541,11.1389204
Vat 9 Shiraz 2011,Australia,Hunter Valley,Tyrrell's,3.9,119,33.92,2011,Hunter Valley,Australia,-32.5421803,151.2185641
GSM 2017,France,Vin de France,Maison de La Villette,4.0,119,6.6,2017,Vin de France,France,50.2767373,3.977096
Pomerol 2005,France,Pomerol,Clos l'Eglise,4.4,119,139.95,2005,Pomerol,France,44.9311234,-0.1999904
Tribu Merlot 2016,Argentina,Maipu,Trivento,3.1,119,8.67,2016,Maipu,Argentina,-32.9836929,-68.7879502
Aconcagua Valley 2017,Chile,Aconcagua Valley,Sena,4.3,119,106.15,2017,Aconcagua Valley,Chile,-30.0,-71.0
Zweigelt 2018,Austria,Burgenland,Judith Beck,3.6,119,10.6,2018,Burgenland,Austria,47.5000001,16.4166666
Macán Clásico 2016,Spain,Rioja,Benjamin de Rothschild - Vega Sicilia,4.2,119,38.5,2016,Rioja,Spain,42.3285528,-2.4674917
Gevrey-Chambertin 2016,France,Gevrey-Chambertin,Joseph Drouhin,4.1,119,48.64,2016,Gevrey-Chambertin,France,47.2261857,4.9705666
Pessac-Léognan (Grand Cru Classé de Graves) 2017,France,Pessac-Léognan,Château Pape Clément,4.0,119,102.35,2017,Pessac-Léognan,France,44.718997,-0.60521
Le Clos des Fées (Hervé Bizeul) 2015,France,Côtes du Roussillon,Domaine du Clos des Fées,4.2,119,38.89,2015,Côtes du Roussillon,France,45.3709088,4.8124715
Mont du Toit 2007,South Africa,Wellington,Mont du Toit,4.1,119,54.0,2007,Wellington,South Africa,-33.643055,19.010556
Saga Médoc 2015,France,Médoc,Barons de Rothschild (Lafite),3.9,119,10.25,2015,Médoc,France,49.3524933,6.1542002
Valpolicella Ripasso (Classico Superiore) 2017,Italy,Valpolicella Ripasso,Tommasi,4.1,119,16.9,2017,Valpolicella Ripasso,Italy,42.83333,12.83333
Il Passo Nerello Mascalese 2018,Italy,Terre Siciliane,Zabu,3.7,119,7.5,2018,Terre Siciliane,Italy,42.83333,12.83333
Les Dentelles Côtes du Roussillon Villages 2015,France,Côtes du Roussillon Villages,Thunevin-Calvet,3.7,119,31.19,2015,Côtes du Roussillon Villages,France,49.023373,2.210713
Maremma Toscana Le Sughere di Frassinello 2015,Italy,Maremma Toscana,Rocca di Frassinello,3.9,1190,19.9,2015,Maremma Toscana,Italy,42.7027722,11.1367433
Barrel Selection Malbec 2018,Argentina,Uco Valley,Salentein,4.1,1192,12.89,2018,Uco Valley,Argentina,-34.0,-64.0
Rioja Reserva (Tempranillo) 2015,Spain,Rioja,Ramón Bilbao,4.0,1192,10.49,2015,Rioja,Spain,42.3285528,-2.4674917
Malbec 2018,Argentina,Mendoza,Alamos,3.7,11920,8.4,2018,Mendoza,Argentina,-34.787093,-68.4381868
Rubicon 2016,South Africa,Stellenbosch,Meerlust,4.3,1193,26.9,2016,Stellenbosch,South Africa,-33.934444,18.869167
Paula Malbec 2018,Argentina,Lujan de Cuyo,Doña Paula,3.4,1194,6.73,2018,Lujan de Cuyo,Argentina,-33.1085238,-69.0129984
Hermitage 'La Maison Bleue' 2017,France,Hermitage,Paul Jaboulet Aîné,4.1,120,77.35,2017,Hermitage,France,47.6406711,-2.7637153
Aviator Blaufränkisch 2017,Austria,Neusiedlersee,Keringer,4.0,120,11.6,2017,Neusiedlersee,Austria,47.8030761,16.6469854
Syrah Reserva 2017,Chile,Central Valley,Escudo Rojo,3.4,120,12.5,2017,Central Valley,Chile,-36.0,-72.0
Poggio Valente 2014,Italy,Toscana,Fattoria le Pupille,3.8,120,26.9,2014,Toscana,Italy,43.4586541,11.1389204
Primitivo 2018,Italy,Salento,Feudo Croce,3.8,120,9.95,2018,Salento,Italy,40.248604,15.190058
Prestige Saint-Drézéry Rouge 2018,France,Saint-Drézéry,Château Puech-Haut,4.2,120,16.85,2018,Saint-Drézéry,France,43.7314311,3.9775826
Pinotage Reserve 2018,South Africa,Durbanville,Diemersdal,4.1,120,19.25,2018,Durbanville,South Africa,-33.8402778,18.6494444
Cabernet Sauvignon - Merlot 2015,Slovenia,Podravje,Puklavec Family Wines,3.0,120,7.65,2015,Podravje,Slovenia,45.5561743,13.8676502
Merlot - Corvina 2018,Italy,Veneto,Corte Giara,3.4,120,6.44,2018,Veneto,Italy,45.6476663,11.8665254
Atrium Merlot 2018,Spain,Penedès,Torres,3.8,120,10.5,2018,Penedès,Spain,41.3463825,1.6995213
Cabernet Sauvignon (The Churchyard) 2018,South Africa,Franschhoek,Franschhoek Cellar,3.6,120,8.5,2018,Franschhoek,South Africa,-33.909167,19.119444
Rosso di Montepulciano 2016,Italy,Rosso di Montepulciano,Talosa,3.4,120,12.19,2016,Rosso di Montepulciano,Italy,43.0921014,11.7818472
La Chenade Lalande de Pomerol 2015,France,Lalande-de-Pomerol,Denis Durantou,4.0,120,28.83,2015,Lalande-de-Pomerol,France,44.9560756,-0.2104434
Appellation Syrah 2017,Argentina,Pedernal Valley,Pyros,3.8,120,13.95,2017,Pedernal Valley,Argentina,-34.0,-64.0
Sot Nebbiolo d'Alba 2015,Italy,Nebbiolo d'Alba,Pelassa,3.7,120,15.99,2015,Nebbiolo d'Alba,Italy,44.6978607,8.0094185
Rosso di Montalcino 2017,Italy,Rosso di Montalcino,Villa Poggio Salvi,3.7,120,13.99,2017,Rosso di Montalcino,Italy,43.055612,11.3592953
Saint-Émilion Grand Cru (Premier Grand Cru Classé) 2016,France,Saint-Émilion Grand Cru,Château Beau-Sejour Becot,4.1,120,85.0,2016,Saint-Émilion Grand Cru,France,44.847147,-0.547337
Anaperenna 2017,Australia,Barossa Valley,Glaetzer,4.2,120,44.99,2017,Barossa Valley,Australia,-34.5817132,138.9987872
1270 A Vuit Red 2013,Spain,Priorat,Hidalgo Albert,3.7,120,29.25,2013,Priorat,Spain,41.2137983,0.8116236
La Garnacha Olvidada de Aragón 2017,Spain,Aragón,Proyecto Garnachas de España,3.7,120,13.95,2017,Aragón,Spain,41.3787291,-0.7639373
Dolcetto d'Alba 2017,Italy,Dolcetto d'Alba,Borgogno,3.8,120,13.95,2017,Dolcetto d'Alba,Italy,42.83333,12.83333
Médoc 2005,France,Médoc,Château d'Escurac,3.7,120,25.95,2005,Médoc,France,49.3524933,6.1542002
Montepulciano d'Abruzzo 2018,Italy,Montepulciano d'Abruzzo,Nobile delle Rocche,3.6,120,4.95,2018,Montepulciano d'Abruzzo,Italy,42.1565463,14.6066804
Les Hauts de Naudon Bordeaux Supérieur 2016,France,Bordeaux Supérieur,Château Pierrail,3.8,120,8.95,2016,Bordeaux Supérieur,France,44.884045,-0.562129
Winemaker's Selection Tinto 2018,Portugal,Lisboa,Portada,3.7,1202,5.74,2018,Lisboa,Portugal,38.7077507,-9.1365919
Salmos 2016,Spain,Priorat,Torres,4.2,1203,23.49,2016,Priorat,Spain,41.2137983,0.8116236
Capitel San Rocco Valpolicella Ripasso Superiore 2016,Italy,Valpolicella Ripasso,Tedeschi,3.8,1205,14.2,2016,Valpolicella Ripasso,Italy,42.83333,12.83333
Crianza Rioja 2016,Spain,Rioja,Ramón Bilbao,3.9,12079,8.6,2016,Rioja,Spain,42.3285528,-2.4674917
Saint-Estèphe (Grand Cru Classé) 2012,France,Saint-Estèphe,Château Montrose,4.2,1208,106.25,2012,Saint-Estèphe,France,45.5925,0.6633333
Pinotage 2016,South Africa,Stellenbosch,Kanonkop,4.2,1208,39.19,2016,Stellenbosch,South Africa,-33.934444,18.869167
Sorì dei Mori Barbera d'Asti 2018,Italy,Barbera d'Asti,Vinchio - Vaglio Serra,3.1,121,8.9,2018,Barbera d'Asti,Italy,44.8524808,8.2414532
Margaux (Grand Cru Classé) 2016,France,Margaux,Château Marquis d'Alesme,4.1,121,53.61,2016,Margaux,France,45.0463335,-0.6729117
Pinotage 2018,South Africa,Stellenbosch,Stellenrust,3.6,121,8.72,2018,Stellenbosch,South Africa,-33.934444,18.869167
I Bastioni Chianti Classico 2017,Italy,Chianti Classico,Collazzi,3.8,121,15.42,2017,Chianti Classico,Italy,43.3930219,11.3088538
4 20 Montepulciano d'Abruzzo 2018,Italy,Montepulciano d'Abruzzo,Torri,3.8,121,8.9,2018,Montepulciano d'Abruzzo,Italy,42.1565463,14.6066804
Pinotage 2016,South Africa,Stellenbosch,Anura,3.8,121,12.6,2016,Stellenbosch,South Africa,-33.934444,18.869167
Cabernet Sauvignon Grande Reserva 2014,Portugal,Lisboa,Casa do Lago,4.1,121,5.99,2014,Lisboa,Portugal,38.7077507,-9.1365919
Reserva 2012,Spain,Rioja,Viña Olabarri,3.7,121,13.7,2012,Rioja,Spain,42.3285528,-2.4674917
Special Reserve Cabernet Sauvignon 2013,Chile,Colchagua Valley,Siegel,3.7,121,12.62,2013,Colchagua Valley,Chile,-30.0,-71.0
Tenuta Santedame Chianti Classico 2015,Italy,Chianti Classico,Ruffino,3.8,121,19.42,2015,Chianti Classico,Italy,43.3930219,11.3088538
Caladessa Tinto 2016,Portugal,Alentejo,Herdade da Calada,4.0,121,9.9,2016,Alentejo,Portugal,38.0551003,-7.8605799
Spätburgunder 2017,Germany,Ahr,Hand in Hand - Meyer-Näkel & Klumpp,3.9,121,12.5,2017,Ahr,Germany,50.4728741,6.9477258
Pietra Susumaniello 2018,Italy,Salento,Menhir,3.8,121,12.9,2018,Salento,Italy,40.248604,15.190058
Savigny Premier Cru 'Aux Clous' 2014,France,Savigny-lès-Beaune 1er Cru 'Aux Clous',Ardhuy,3.8,121,23.59,2014,Savigny-lès-Beaune 1er Cru 'Aux Clous',France,47.069606,4.799696
Cabernet Sauvignon - Syrah 2018,France,Pays d'Oc,Anciens Temps,3.6,121,5.7,2018,Pays d'Oc,France,43.604764,1.4540399
Roches d'Hillac 2015,France,Buzet,Les Vignerons de Buzet,3.4,121,6.2,2015,Buzet,France,43.7096644,-0.8313243
La Cumbre Syrah 2015,Chile,Aconcagua Valley,Errazuriz,4.3,121,63.27,2015,Aconcagua Valley,Chile,-30.0,-71.0
Argile Rouge 2017,France,Vins des Allobroges,Domaine des Ardoisieres,3.9,121,29.15,2017,Vins des Allobroges,France,46.198945,6.246902
Brunello di Montalcino Riserva 2010,Italy,Brunello di Montalcino,Conti Costanti,4.5,121,144.53,2010,Brunello di Montalcino,Italy,43.3204995,11.3281859
One Red Blend 2016,South Africa,Western Cape,Capaia,3.9,121,19.05,2016,Western Cape,South Africa,-33.546977,20.72753
Circle of Life Red 2015,South Africa,Stellenbosch,Waterkloof,3.7,121,16.9,2015,Stellenbosch,South Africa,-33.934444,18.869167
Barolo 2013,Italy,Barolo,Ceretto,4.0,1211,48.4,2013,Barolo,Italy,44.6108408,7.9428448
Grand Cru Apalta 2014,Chile,Colchagua Valley,Caballo Loco,4.4,1211,27.2,2014,Colchagua Valley,Chile,-30.0,-71.0
Marquis de Calon Saint-Estèphe 2014,France,Saint-Estèphe,Château Calon-Ségur,3.9,1212,24.9,2014,Saint-Estèphe,France,45.5925,0.6633333
Légende (R) Bordeaux Rouge 2016,France,Bordeaux,Barons de Rothschild (Lafite),3.5,1213,12.14,2016,Bordeaux,France,44.841225,-0.5800364
Barbera d'Alba 2017,Italy,Barbera d'Alba,Fontanafredda,3.6,1213,8.59,2017,Barbera d'Alba,Italy,44.7712158,8.0435811
Estate Shiraz 2017,Australia,Clare Valley,Taylors / Wakefield,3.8,1215,9.5,2017,Clare Valley,Australia,-33.7890862,138.590557
Da Vinci Chianti 2017,Italy,Chianti,Cantine Leonardo da Vinci,3.5,1218,7.5,2017,Chianti,Italy,43.5824597,11.3168731
Terroir du Trias Bandol Rouge 2015,France,Bandol,Domaine de Terrebrune,4.1,122,30.9,2015,Bandol,France,43.1357717,5.7523647
Chiaramonte Nero d'Avola 2017,Italy,Terre Siciliane,Firriato,3.7,122,8.49,2017,Terre Siciliane,Italy,42.83333,12.83333
Pinot Noir Te Muna Road Vineyard 2017,New Zealand,Marlborough,Craggy Range,4.1,122,39.48,2017,Marlborough,New Zealand,-41.4744747,173.8330263
Titolo 2016,Italy,Aglianico del Vulture,Elena Fucci,3.8,122,31.48,2016,Aglianico del Vulture,Italy,40.95125,15.63543
Johanneshöhe Blaufränkisch 2012,Austria,Burgenland,Prieler,3.7,122,11.09,2012,Burgenland,Austria,47.5000001,16.4166666
Sorì San Lorenzo 2013,Italy,Langhe,Gaja,4.4,122,445.0,2013,Langhe,Italy,44.493036,7.974639
Moncagua Malbec 2017,Argentina,Mendoza,Belasco de Baquedano,3.7,122,8.83,2017,Mendoza,Argentina,-34.787093,-68.4381868
Passiata 2017,Italy,Sicilia,Stemmari,3.9,122,6.68,2017,Sicilia,Italy,37.587794,14.155048
Montagne-Saint-Émilion 2015,France,Montagne-Saint-Émilion,Château Tour Calon,3.6,122,14.36,2015,Montagne-Saint-Émilion,France,44.9239804,-0.1798164
Médoc 2010,France,Médoc,Château Cardus,3.7,122,14.9,2010,Médoc,France,49.3524933,6.1542002
Sidereus 2016,Italy,Toscana,Cantine del Borgo Reale,3.8,122,26.81,2016,Toscana,Italy,43.4586541,11.1389204
Haut-Médoc 2014,France,Haut-Médoc,Château Saint-Ahon,3.9,122,18.42,2014,Haut-Médoc,France,45.1445995,-0.7357492
Caudium Aglianico 2018,Italy,Campania,Masseria Frattasi,3.8,122,10.57,2018,Campania,Italy,40.860672,14.843984
Barthélémy 2010,France,Francs - Côtes de Bordeaux,Château le Puy,4.2,122,149.0,2010,Francs - Côtes de Bordeaux,France,44.9379818,-0.020966
Aenigma Red 2014,South Africa,Elgin,Neil Ellis,3.5,122,9.9,2014,Elgin,South Africa,-34.1486111,19.0427778
Toscana Rosso 2015,Italy,Toscana,La Madonnina,4.1,122,26.0,2015,Toscana,Italy,43.4586541,11.1389204
Crozes-Hermitage Domaine de Thalabert 1996,France,Crozes-Hermitage,Paul Jaboulet Aîné,3.8,122,54.25,1996,Crozes-Hermitage,France,45.0907,4.84592
Finca Biniagual Gran Verán 2015,Spain,Binissalem-Mallorca,Biniagual,4.0,122,46.79,2015,Binissalem-Mallorca,Spain,39.6002717,2.6720865
Martin Melck Cabernet Sauvignon 2015,South Africa,Stellenbosch,Muratie,4.1,122,13.99,2015,Stellenbosch,South Africa,-33.934444,18.869167
Vitral Reserva Carmenère 2018,Chile,Rapel Valley,Viña Maipo,3.6,122,7.5,2018,Rapel Valley,Chile,-30.0,-71.0
Chianti Classico 2014,Italy,Chianti Classico,Cinciole,3.8,122,14.57,2014,Chianti Classico,Italy,43.3930219,11.3088538
Bordeaux Rouge 2015,France,Bordeaux,Château Vircoulon,3.2,122,8.95,2015,Bordeaux,France,44.841225,-0.5800364
Terroir Series Cabernet Sauvignon 2016,Argentina,Mendoza,Kaiken,3.7,122,10.24,2016,Mendoza,Argentina,-34.787093,-68.4381868
Barbera d'Alba Maria Gioana 2015,Italy,Barbera d'Alba,Giacosa Fratelli,4.0,122,14.62,2015,Barbera d'Alba,Italy,44.7712158,8.0435811
Blauer Spätburgunder 2013,Germany,Baden,Ziereisen,3.4,122,11.31,2013,Baden,Germany,53.0023496,9.0820955
Châteauneuf-du-Pape (Tradition) Rouge 2010,France,Châteauneuf-du-Pape,Domaine de la Janasse,4.1,122,49.95,2010,Châteauneuf-du-Pape,France,44.055989,4.8317351
Rosso di Montepulciano 2018,Italy,Rosso di Montepulciano,Tenuta di Gracciano della Seta,3.9,122,8.53,2018,Rosso di Montepulciano,Italy,43.0921014,11.7818472
Monti Garbi Valpolicella Ripasso Superiore 2017,Italy,Valpolicella Ripasso,Tenuta Sant'Antonio,3.9,1220,9.95,2017,Valpolicella Ripasso,Italy,42.83333,12.83333
Cabernet Sauvignon (Cs) 2016,United States,Columbia Valley,Substance,3.8,1221,21.8,2016,Columbia Valley,United States,46.1576117,-122.9748352
Rocca Rubia Riserva Carignano del Sulcis 2016,Italy,Carignano del Sulcis,Santadi,4.1,1222,15.08,2016,Carignano del Sulcis,Italy,39.06667,8.68333
Rioja Gran Reserva 2011,Spain,Rioja,Marqués de Cáceres,4.0,1225,17.69,2011,Rioja,Spain,42.3285528,-2.4674917
Crianza 2014,Spain,Rioja,Rioja Vega,3.5,1226,7.99,2014,Rioja,Spain,42.3285528,-2.4674917
Saint-Julien (Grand Cru Classé) 2007,France,Saint-Julien,Château Léoville Barton,4.1,1227,76.0,2007,Saint-Julien,France,47.4019947,5.1364639
Moulis-en-Médoc 2012,France,Moulis-en-Médoc,Château Poujeaux,3.9,1227,31.19,2012,Moulis-en-Médoc,France,45.0564852,-0.7736381
Saint-Julien (Grand Cru Classé) 2008,France,Saint-Julien,Château Léoville Barton,4.2,1228,76.95,2008,Saint-Julien,France,47.4019947,5.1364639
Poggio ai Ginepri Bolgheri 2017,Italy,Bolgheri,Tenuta Argentiera,3.9,1228,11.9,2017,Bolgheri,Italy,43.2340065,10.6179334
Selección Especial (Reserva) 2015,Spain,Rioja,Muga,4.3,1229,26.32,2015,Rioja,Spain,42.3285528,-2.4674917
Dragone Rosso 2016,Italy,Calabria,Lento,3.8,123,13.42,2016,Calabria,Italy,39.0565974,16.5249864
Lily's Garden Shiraz 2017,Australia,McLaren Vale,Two Hands,4.2,123,49.0,2017,McLaren Vale,Australia,-35.2172617,138.5416998
LZ Rioja 2018,Spain,Rioja,Telmo Rodriguez,3.5,123,8.75,2018,Rioja,Spain,42.3285528,-2.4674917
Estate Selection Cabernet Sauvignon - Merlot 2017,Slovenia,Podravje,Puklavec Family Wines,3.6,123,8.99,2017,Podravje,Slovenia,45.5561743,13.8676502
Saint-Émilion Grand Cru (Premier Grand Cru Classé) 2011,France,Saint-Émilion Grand Cru,Château Belair-Monange,4.2,123,109.0,2011,Saint-Émilion Grand Cru,France,44.847147,-0.547337
Garnatxa 2018,Spain,Catalunya,Segura Viudas,3.1,123,6.25,2018,Catalunya,Spain,41.8523094,1.5745043
Reserve Spéciale Cabernet - Merlot 2017,France,Pays d'Oc,Philibert du Charme,4.0,123,6.61,2017,Pays d'Oc,France,43.604764,1.4540399
Reserva Tinto 1999,Portugal,Alentejo,Marquês de Borba,4.5,123,50.2,1999,Alentejo,Portugal,38.0551003,-7.8605799
Châteauneuf-du-Pape Chaupin 2010,France,Châteauneuf-du-Pape,Domaine de la Janasse,4.4,123,98.0,2010,Châteauneuf-du-Pape,France,44.055989,4.8317351
Margaux 2016,France,Margaux,Château Rauzan-Gassies,4.0,123,88.0,2016,Margaux,France,45.0463335,-0.6729117
Tempranillo Valencia 2018,Spain,Valencia,Radio Boca,3.4,123,5.15,2018,Valencia,Spain,39.4697065,-0.3763353
Pézenas 2017,France,Pézenas,Mas des Mas,3.7,123,16.79,2017,Pézenas,France,43.4611777,3.4228323
Les Vieilles Vignes Volnay 2015,France,Volnay,Vincent Girardin,3.9,123,48.1,2015,Volnay,France,47.0016955,4.7811102
Conteisa Langhe 2011,Italy,Langhe,Gaja,4.2,123,219.0,2011,Langhe,Italy,44.493036,7.974639
Kanai Riserva Carignano del Sulcis 2015,Italy,Carignano del Sulcis,Sardus Pater,3.8,123,16.57,2015,Carignano del Sulcis,Italy,39.06667,8.68333
Paxxo 2017,Italy,Veneto,Stefano Accordini,4.1,123,19.4,2017,Veneto,Italy,45.6476663,11.8665254
Petit Jaug Margaux 2012,France,Margaux,Clos du Jaugueyron,3.9,123,25.0,2012,Margaux,France,45.0463335,-0.6729117
Alentejano Reserva Tinto 2016,Portugal,Alentejano,Herdade dos Grous,4.3,123,37.9,2016,Alentejano,Portugal,38.8421261,-7.5871012
Haut-Médoc 2005,France,Haut-Médoc,Château Tour du Haut Moulin,3.7,123,27.95,2005,Haut-Médoc,France,45.1445995,-0.7357492
Odé d'Aydie Madiran 2016,France,Madiran,Château d'Aydie,3.7,123,12.9,2016,Madiran,France,43.5502022,-0.0580853
Instinct Parcellaire Côtes de Provence 2015,France,Côtes de Provence,Château des Bormettes,3.7,123,21.93,2015,Côtes de Provence,France,43.4370505,6.652775
Rosso di Montalcino Banditella 2016,Italy,Rosso di Montalcino,Col d'Orcia,3.8,123,18.5,2016,Rosso di Montalcino,Italy,43.055612,11.3592953
Eremo San Quirico 2016,Italy,Irpinia Campi Taurasini,Nativ,4.2,1232,17.45,2016,Irpinia Campi Taurasini,Italy,42.83333,12.83333
Rioja Reserva 2009,Spain,Rioja,Luis Cañas,3.9,1233,34.99,2009,Rioja,Spain,42.3285528,-2.4674917
De Chiripa 2017,Spain,Ribera del Duero,Valderiz,3.6,124,15.27,2017,Ribera del Duero,Spain,41.6657566,-3.6863295
Colección Crianza 2013,Spain,Navarra,Castillo de Enériz,4.1,124,12.3,2013,Navarra,Spain,42.6125488,-1.8307877
Leradici Barbera d'Asti 2018,Italy,Barbera d'Asti,Mauro Molino,4.0,124,15.47,2018,Barbera d'Asti,Italy,44.8524808,8.2414532
Merlot 2017,Israel,Galilee,Gamla,3.9,124,15.05,2017,Galilee,Israel,32.8008444,35.5889732
Barolo Pajana 2011,Italy,Barolo,Domenico Clerico,4.2,124,63.92,2011,Barolo,Italy,44.6108408,7.9428448
Al-Muvedre Tinto Monastrell 2018,Spain,Alicante,Telmo Rodriguez,3.6,124,6.95,2018,Alicante,Spain,38.3436365,-0.4881708
Geremia Toscana 2013,Italy,Toscana,Rocca di Montegrossi,4.1,124,29.95,2013,Toscana,Italy,43.4586541,11.1389204
Margaux (Grand Cru Classé) 2017,France,Margaux,Château Giscours,3.8,124,70.19,2017,Margaux,France,45.0463335,-0.6729117
Saint-Estèphe 2016,France,Saint-Estèphe,Château Le Crock,4.0,124,38.25,2016,Saint-Estèphe,France,45.5925,0.6633333
Monopole 'Clos des Langres' Rouge 2014,France,Côte de Nuits Villages,Ardhuy,4.2,124,35.5,2014,Côte de Nuits Villages,France,48.993539,2.061083
Barolo Brunate 2011,Italy,Barolo,Vietti,4.4,124,144.53,2011,Barolo,Italy,44.6108408,7.9428448
The Long Walk Shiraz 2018,South Africa,Western Cape,Footprint,3.5,124,6.5,2018,Western Cape,South Africa,-33.546977,20.72753
Cabernet Sauvignon 2015,South Africa,Stellenbosch,Zevenwacht,3.8,124,13.82,2015,Stellenbosch,South Africa,-33.934444,18.869167
País 2015,Chile,Itata Valley,Viña La Causa,3.8,124,11.55,2015,Itata Valley,Chile,-30.0,-71.0
Rouge 2015,France,Gard,Roc d'Anglade,3.9,124,36.46,2015,Gard,France,43.95995,4.297637
La Napoleon Beaujolais Villages 2017,France,Beaujolais-Villages,Clotaire Michal,3.8,124,35.0,2017,Beaujolais-Villages,France,46.055504,4.592934
Vi de Vila Gratallops 2017,Spain,Priorat,Álvaro Palacios,4.3,124,47.95,2017,Priorat,Spain,41.2137983,0.8116236
Shiraz 2017,Australia,McLaren Vale,Jim Jim,3.4,124,11.6,2017,McLaren Vale,Australia,-35.2172617,138.5416998
Domaine De Cigalus Red 2018,France,Vin de Pays,Gérard Bertrand,4.1,124,32.75,2018,Vin de Pays,France,43.22744,2.9252606
Reserva Malbec 2017,Argentina,Patagonia,Bodega del Fin del Mundo,3.8,1242,13.69,2017,Patagonia,Argentina,-44.9900698,-70.6734314
Haut-Médoc 2012,France,Haut-Médoc,Château Sociando-Mallet,4.0,1243,52.35,2012,Haut-Médoc,France,45.1445995,-0.7357492
Tempranillo 2018,Spain,Rioja,Dinastía Manzanos,3.7,1246,5.43,2018,Rioja,Spain,42.3285528,-2.4674917
Primitivo Salento Pilùna 2018,Italy,Salento,Castello Monaci,4.0,1247,6.9,2018,Salento,Italy,40.248604,15.190058
Koonunga Hill Shiraz - Cabernet 2018,Australia,South Australia,Penfolds,3.7,1249,10.6,2018,South Australia,Australia,-30.5343665,135.6301212
Adénzia Rosso 2016,Italy,Sicilia,Baglio del Cristo di Campobello,4.0,125,13.4,2016,Sicilia,Italy,37.587794,14.155048
Chianti Classico 2017,Italy,Chianti Classico,Dievole,3.6,125,16.9,2017,Chianti Classico,Italy,43.3930219,11.3088538
Memorious Pinot Noir 2016,United States,Sta. Rita Hills,Domaine de la Côte,4.0,125,54.0,2016,Sta. Rita Hills,United States,55.466733,-131.806174
Batonnage (Red Scorpion) 2016,Austria,Niederösterreich,Scheiblhofer,4.4,125,149.0,2016,Niederösterreich,Austria,48.2817813,15.7632457
l'Equilibre 2016,France,Languedoc-Roussillon,Villa Symposia,3.7,125,8.72,2016,Languedoc-Roussillon,France,43.508482,2.34549
Rouge (Estate Reserve) 2011,South Africa,Stellenbosch,Morgenster Estate,4.2,125,36.5,2011,Stellenbosch,South Africa,-33.934444,18.869167
Alàuda 2015,Italy,Toscana,Ruffino,4.5,125,106.89,2015,Toscana,Italy,43.4586541,11.1389204
Parcela 12 Graciano 2016,Spain,Castilla,Finca Constancia,3.8,125,8.99,2016,Castilla,Spain,40.4763551,-3.6800358
Copertino 2016,Italy,Copertino,Doppio Passo,4.1,125,8.77,2016,Copertino,Italy,40.2716808,18.0502517
Le Different de Chateau de Ferrand Saint Emilion Grand Cru 2015,France,Saint-Émilion Grand Cru,Château de Ferrand,4.1,125,21.0,2015,Saint-Émilion Grand Cru,France,44.847147,-0.547337
Haut-Médoc 2015,France,Haut-Médoc,Château d'Aurilhac,3.6,125,13.5,2015,Haut-Médoc,France,45.1445995,-0.7357492
Caroso Montepulciano d'Abruzzo Riserva 2015,Italy,Montepulciano d'Abruzzo,Citra,3.9,125,13.55,2015,Montepulciano d'Abruzzo,Italy,42.1565463,14.6066804
Ermitage Le Pavillon 2000,France,Hermitage,M. Chapoutier,4.6,125,419.95,2000,Hermitage,France,47.6406711,-2.7637153
Matallana 2010,Spain,Ribera del Duero,Telmo Rodriguez,4.0,125,81.95,2010,Ribera del Duero,Spain,41.6657566,-3.6863295
Alfredo Dried Grape Shiraz 2016,Australia,South Australia,Nugan,3.8,125,22.59,2016,South Australia,Australia,-30.5343665,135.6301212
Rocche di Castiglione Barolo 2011,Italy,Barolo,Brovia,4.2,125,66.45,2011,Barolo,Italy,44.6108408,7.9428448
Toscano Rosso 2016,Italy,Toscana,Famiglia Castellani,4.0,125,5.43,2016,Toscana,Italy,43.4586541,11.1389204
Annonce Saint-Émilion Grand Cru 2014,France,Saint-Émilion Grand Cru,Château Belair-Monange,4.1,125,53.61,2014,Saint-Émilion Grand Cru,France,44.847147,-0.547337
Messiio Maremma Toscana 2015,Italy,Maremma Toscana,Fertuna,4.1,125,21.24,2015,Maremma Toscana,Italy,42.7027722,11.1367433
Tempranillo 2017,Spain,Castilla,Conde Pinel,3.4,125,4.86,2017,Castilla,Spain,40.4763551,-3.6800358
Ventoux Artemia 2015,France,Ventoux,Château Pesquie,4.0,125,32.9,2015,Ventoux,France,48.6778082,2.1768592
Cabernet Sauvignon 2017,United States,California,Wines from Hahn Estate,3.7,1250,19.2,2017,California,United States,36.7014631,-118.755997
Bourgogne Pinot Noir 2015,France,Bourgogne,Bouchard Père & Fils,3.5,1252,44.59,2015,Bourgogne,France,49.3555104,4.0681417
Tupungato Passo Doble Malbec - Corvina 2009,Argentina,Tupungato,Masi,3.5,1252,13.69,2009,Tupungato,Argentina,-33.3723648,-69.1479533
Reserva de Propiedad 2016,Chile,Maipo Valley,Haras de Pirque,3.5,1253,9.99,2016,Maipo Valley,Chile,-30.0,-71.0
Saint-Julien (Grand Cru Classé) 2005,France,Saint-Julien,Château Léoville Poyferré,4.4,1254,139.95,2005,Saint-Julien,France,47.4019947,5.1364639
Bordeaux Supérieur 2015,France,Bordeaux Supérieur,Château Croix Mouton,3.7,1254,14.57,2015,Bordeaux Supérieur,France,44.884045,-0.562129
Chianti Classico 2015,Italy,Chianti Classico,Tenuta Perano,3.8,1255,16.08,2015,Chianti Classico,Italy,43.3930219,11.3088538
Alandra Tinto 2018,Portugal,Alentejo,Esporão,3.3,1258,4.75,2018,Alentejo,Portugal,38.0551003,-7.8605799
Gran Sangre de Toro Reserva 2015,Spain,Catalunya,Torres,3.7,1258,9.9,2015,Catalunya,Spain,41.8523094,1.5745043
Rubesco Rosso di Torgiano 2013,Italy,Torgiano,Lungarotti,3.5,1259,11.65,2013,Torgiano,Italy,43.028542,12.44136
Reserve Cabernet Sauvignon 2014,South Africa,Stellenbosch,Anura,3.9,126,16.6,2014,Stellenbosch,South Africa,-33.934444,18.869167
Les Terroirs Vieux Carignan 2017,France,Hérault,Calmel & Joseph,3.7,126,9.9,2017,Hérault,France,43.591422,3.3553309
Chianti Superiore 2018,Italy,Chianti,Castello del Trebbio,3.8,126,13.33,2018,Chianti,Italy,43.5824597,11.3168731
Casalferro Toscana 2016,Italy,Toscana,Ricasoli,4.0,126,39.9,2016,Toscana,Italy,43.4586541,11.1389204
Barbera d'Alba Trevigne 2009,Italy,Barbera d'Alba,Domenico Clerico,3.7,126,16.39,2009,Barbera d'Alba,Italy,44.7712158,8.0435811
Pelagrilli Brunello di Montalcino 2014,Italy,Brunello di Montalcino,Siro Pacenti,4.2,126,51.9,2014,Brunello di Montalcino,Italy,43.3204995,11.3281859
50 & 50 2014,Italy,Toscana,Capannelle,4.3,126,95.7,2014,Toscana,Italy,43.4586541,11.1389204
Wiener Trilogie 2016,Austria,Wien,Wieninger,3.7,126,12.87,2016,Wien,Austria,48.2083537,16.3725042
Gattinara Tre Vigne 2014,Italy,Gattinara,Travaglini,4.1,126,38.7,2014,Gattinara,Italy,45.6142424,8.3711382
Ocra Bolgheri Rosso 2017,Italy,Bolgheri,Tenute Guicciardini Strozzi,3.9,126,21.95,2017,Bolgheri,Italy,43.2340065,10.6179334
Message in a Bottle Rosso 2018,Italy,Toscana,Tenuta Il Palagio,3.7,126,14.55,2018,Toscana,Italy,43.4586541,11.1389204
Bricco Dei Merli Barbera d'Alba 2015,Italy,Barbera d'Alba,Elvio Cogno,3.8,126,13.95,2015,Barbera d'Alba,Italy,44.7712158,8.0435811
Lacrima di Morro d'Alba 2018,Italy,Lacrima di Morro d'Alba,Conti di Buscareto,3.4,126,7.58,2018,Lacrima di Morro d'Alba,Italy,43.6,13.21331
Coevo Toscana 2013,Italy,Toscana,Cecchi,4.2,126,59.02,2013,Toscana,Italy,43.4586541,11.1389204
Amarone della Valpolicella Case Vecie 2013,Italy,Amarone della Valpolicella Classico,Brigaldara,4.0,126,36.75,2013,Amarone della Valpolicella Classico,Italy,42.83333,12.83333
Syrah Sicilia 2018,Italy,Sicilia,Feudo Arancio,3.8,126,6.75,2018,Sicilia,Italy,37.587794,14.155048
Cabernet Sauvignon 2017,Australia,Riverina,Richland,3.5,126,9.78,2017,Riverina,Australia,-37.8001708,144.907214
