Name,Country,Region,Winery,Rating,NumberOfRatings,Price,Year,city,country,lat,lng,3-5_tavg,3-5_tmin,3-5_tmax,3-5_prcp,3-5_tsun,6-8_tavg,6-8_tmin,6-8_tmax,6-8_prcp,6-8_tsun,9-11_tavg,9-11_tmin,9-11_tmax,9-11_prcp,9-11_tsun
Pomerol 2011,France,Pomerol,Château La Providence,4.2,100,95.0,2011-01-01,Pomerol,France,44.9311234,-0.1999904,12.5,7.666666666666667,18.033333333333335,45.333333333333336,12600.0,20.566666666666666,15.266666666666667,26.5,44.666666666666664,15300.0,13.533333333333331,9.433333333333334,18.599999999999998,110.66666666666667,10060.0
Lirac 2017,France,Lirac,Château Mont-Redon,4.3,100,15.5,2017-01-01,Lirac,France,44.0372,4.69136,,,,,,,,,,,,,,,
Erta e China Rosso di Toscana 2015,Italy,Toscana,Renzo Masi,3.9,100,7.45,2015-01-01,Toscana,Italy,43.4586541,11.1389204,,,,,,,,,,,,,,,
Bardolino 2019,Italy,Bardolino,Cavalchina,3.5,100,8.72,2019-01-01,Bardolino,Italy,45.5475595,10.7242145,,,,,,,,,,,12.5,10.1,15.3,,
Ried Scheibner Pinot Noir 2016,Austria,Carnuntum,Markowitsch,3.9,100,29.15,2016-01-01,Carnuntum,Austria,48.1141485,16.8657834,,,,,,,,,,,,,,,
Gigondas (Nobles Terrasses) 2017,France,Gigondas,Vieux Clocher,3.7,100,19.9,2017-01-01,Gigondas,France,44.1641127,5.0051053,,,,,,24.5,16.8,32.0,,,,,,,
Marion's Vineyard Pinot Noir 2016,New Zealand,Wairarapa,Schubert,4.0,100,43.87,2016-01-01,Wairarapa,New Zealand,-41.2361798,175.2196902,15.899999999999999,,,128.8,,10.266666666666667,,,79.0,,12.299999999999999,,,38.03333333333334,
Red Blend 2014,Chile,Itata Valley,Viña La Causa,3.9,100,17.52,2014-01-01,Itata Valley,Chile,-30.0,-71.0,13.733333333333334,10.933333333333332,17.96666666666667,10.666666666666666,8900.0,10.666666666666666,7.766666666666667,15.133333333333335,0.5,8880.0,12.866666666666665,9.433333333333334,17.666666666666664,1.6666666666666667,11960.0
Chianti 2015,Italy,Chianti,Castello Montaùto,3.6,100,10.75,2015-01-01,Chianti,Italy,43.5824597,11.3168731,,,,,,,,,,,,,,,
Tradition 2014,France,Minervois,Domaine des Aires Hautes,3.5,100,6.9,2014-01-01,Minervois,France,43.2718,2.52099,13.3,9.2,17.9,,,24.0,17.9,30.8,,,16.4,12.8,20.7,,
Chianti Riserva 2013,Italy,Chianti,Poggiotondo,3.9,100,20.95,2013-01-01,Chianti,Italy,43.5824597,11.3168731,,,,,,,,,,,,,,,
Descendant 2016,Australia,Barossa,Torbreck,4.3,100,140.64,2016-01-01,Barossa,Australia,-34.6134149,138.9385455,,9.133333333333333,17.633333333333336,39.400000000000006,,,5.566666666666667,11.033333333333331,62.73333333333334,,,10.0,20.866666666666664,31.7,
Les Obriers de la Peira Terrasses du Larzac 2017,France,Terrasses du Larzac,La Pèira en Damaisèla,4.1,100,14.52,2017-01-01,Terrasses du Larzac,France,43.7152761,3.4888802,,,,,,,,,,,16.3,13.7,19.4,,
Zenas Primitivo 2018,Italy,Puglia,La Bollina,3.6,100,9.26,2018-01-01,Puglia,Italy,40.9842539,16.6210027,16.049999999999997,11.2,20.25,,,25.75,20.2,30.4,,,,,,,
Cuvée Confidence Côtes du Rhône Rouge 2017,France,Côtes-du-Rhône,Domaine Fond Croze,3.7,100,8.49,2017-01-01,Côtes-du-Rhône,France,44.7667285,4.8528701,,,,,,,,,,,,,,,
Shiraz 2018,Australia,South Eastern Australia,Barramundi,3.2,100,6.5,2018-01-01,South Eastern Australia,Australia,-35.0085711,138.5726421,17.9,12.933333333333332,23.266666666666666,14.8,,11.633333333333333,7.033333333333334,16.033333333333335,58.76666666666667,,17.666666666666668,13.200000000000001,22.75,37.2,
Proprietor's Blend 2016,South Africa,Stellenbosch,Ernie Els,4.2,100,29.09,2016-01-01,Stellenbosch,South Africa,-33.934444,18.869167,18.15,15.5,24.15,,,12.566666666666668,7.55,17.8,,,17.1,13.0,24.5,,
La Bienquerida 2016,Spain,Bierzo,Losada,4.3,100,41.58,2016-01-01,Bierzo,Spain,42.60645,-6.8097712,,7.066666666666666,21.03333333333333,34.13333333333333,,21.2,14.666666666666666,30.2,17.0,,15.2,8.266666666666666,19.5,70.53333333333335,
Cabernet Sauvignon 2015,United States,California,Hacienda,3.8,100,7.95,2015-01-01,California,United States,36.7014631,-118.755997,,,,,,,,,,,,,,,
Fulgeo Negroamaro Salento 2016,Italy,Salento,San Donaci,4.0,100,12.9,2016-01-01,Salento,Italy,40.248604,15.190058,15.366666666666667,11.5,19.566666666666666,,,25.066666666666663,,30.700000000000003,,,19.266666666666666,,28.2,,
Contraste Tinto 2015,Portugal,Douro,Conceito,3.4,100,9.9,2015-01-01,Douro,Portugal,41.135684,-7.1166743,,,,,,,,,,,,,,,
Steiner 2013,Hungary,Sopron,Weninger,3.7,100,24.5,2013-01-01,Sopron,Hungary,47.6803063,16.5983457,,,,,,,,,,,16.8,11.3,22.6,,
Old Vines Primitivo 2015,Italy,Puglia,Azienda Agricola Morella,4.2,100,38.7,2015-01-01,Puglia,Italy,40.9842539,16.6210027,,,,,,,,,,,,,,,
Virtus Tannat 2013,Brazil,Serra Gaúcha,Monte Paschoal,2.9,100,6.77,2013-01-01,Serra Gaúcha,Brazil,-29.1551147,-51.5153447,,,,,,,,,,,,,,,
Kallista 2015,South Africa,Stellenbosch,Vriesenhof,4.3,100,26.25,2015-01-01,Stellenbosch,South Africa,-33.934444,18.869167,18.033333333333335,12.799999999999999,23.233333333333334,40.0,14380.0,13.166666666666666,8.233333333333333,18.166666666666668,101.66666666666667,10820.0,17.666666666666668,12.066666666666668,23.266666666666666,17.666666666666668,17700.0
Badia a Passignano Gran Selezione Chianti Classico 2016,Italy,Chianti Classico,Antinori,4.2,1000,39.9,2016-01-01,Chianti Classico,Italy,43.3930219,11.3088538,,,,,,,,,,,,,,,
Saint-Émilion Grand Cru (Premier Grand Cru Classé) 2012,France,Saint-Émilion Grand Cru,Château Figeac,4.4,1000,174.49,2012-01-01,Saint-Émilion Grand Cru,France,44.847147,-0.547337,15.133333333333333,9.566666666666668,21.166666666666668,17.666666666666668,15120.0,19.933333333333334,14.9,25.666666666666668,56.666666666666664,13020.0,15.600000000000001,11.5,21.033333333333335,33.666666666666664,10580.0
Carlo V Il Rosso dell'Imperatore 2013,Italy,Veneto,Colli Vicentini,3.7,1000,15.9,2013-01-01,Veneto,Italy,45.6476663,11.8665254,14.333333333333334,8.566666666666666,20.86666666666667,76.0,,25.433333333333334,19.333333333333332,31.599999999999998,59.666666666666664,,14.933333333333332,10.799999999999999,19.666666666666668,70.0,
Pinot Noir 2016,United States,Monterey,District 7,3.6,1001,15.98,2016-01-01,Monterey,United States,36.2231079,-121.387742,,,,,,,,,,,,,,,
Marquis de Calon Saint-Estèphe 2015,France,Saint-Estèphe,Château Calon-Ségur,3.9,1001,43.28,2015-01-01,Saint-Estèphe,France,45.5925,0.6633333,,,,,,,,,,,,,,,
Hécula Monastrell 2017,Spain,Yecla,Castaño,3.3,1004,8.83,2017-01-01,Yecla,Spain,38.6135956,-1.1157882,16.666666666666668,,22.0,11.25,,24.799999999999997,,,0.55,,20.099999999999998,,,5.1,
Berola 2015,Spain,Campo de Borja,Borsao,3.9,1006,14.52,2015-01-01,Campo de Borja,Spain,41.7865415,-1.5058323,,,,,,,,,,,,,,,
Saint-Julien (Grand Cru Classé) 2010,France,Saint-Julien,Château Léoville Poyferré,4.4,1008,189.0,2010-01-01,Saint-Julien,France,47.4019947,5.1364639,11.700000000000001,6.5,17.133333333333333,47.333333333333336,12500.0,19.7,14.066666666666668,25.599999999999998,88.66666666666667,15340.0,11.800000000000002,7.666666666666667,16.733333333333334,56.0,8560.0
Pinot Noir Bourgogne 2017,France,Bourgogne,Faiveley,3.7,1009,15.9,2017-01-01,Bourgogne,France,49.3555104,4.0681417,,,,,,,,,,,,,,,
Vigna del Noce Barbera d'Asti 2007,Italy,Barbera d'Asti,Trinchero,4.1,101,76.9,2007-01-01,Barbera d'Asti,Italy,44.8524808,8.2414532,,,,,,,,,,,,,,,
I Tratturi Rosso 2017,Italy,Salento,San Marzano,3.8,101,7.04,2017-01-01,Salento,Italy,40.248604,15.190058,15.266666666666666,,20.8,,,24.099999999999998,,29.6,,,19.0,,26.8,,
Château Pilet Bordeaux 2017,France,Bordeaux,J.Queyrens & Fils,3.6,101,6.5,2017-01-01,Bordeaux,France,44.841225,-0.5800364,12.066666666666668,8.1,17.233333333333334,87.46666666666665,,20.566666666666666,15.433333333333335,26.7,32.833333333333336,,14.5,10.233333333333334,19.866666666666664,54.199999999999996,
Sancerre Rouge 2015,France,Sancerre,Comte Lafond,4.2,101,37.34,2015-01-01,Sancerre,France,47.3306906,2.8390454,,,,,,,,,,,,,,,
Shiraz 2016,Australia,McLaren Vale,Food Truck,3.5,101,8.67,2016-01-01,McLaren Vale,Australia,-35.2172617,138.5416998,,12.399999999999999,20.3,44.866666666666674,,,8.266666666666666,14.933333333333332,41.8,,,12.333333333333334,22.8,19.4,
Ro-Rée Saint-Joseph 2018,France,Saint-Joseph,Louis Chèze,4.2,101,24.37,2018-01-01,Saint-Joseph,France,49.5344534,-1.529802,,,,,,,,,,,,,,,
Cabernet Sauvignon 2015,South Africa,Stellenbosch,Big Flower,4.0,101,16.5,2015-01-01,Stellenbosch,South Africa,-33.934444,18.869167,18.033333333333335,12.799999999999999,23.233333333333334,40.0,14380.0,13.166666666666666,8.233333333333333,18.166666666666668,101.66666666666667,10820.0,17.666666666666668,12.066666666666668,23.266666666666666,17.666666666666668,17700.0
Cuvée Alienor Fronsac 2015,France,Fronsac,Château Mayne-Vieil,3.7,101,16.47,2015-01-01,Fronsac,France,42.9509183,0.6487221,11.566666666666668,5.966666666666666,17.76666666666667,110.33333333333333,11280.0,18.766666666666666,13.799999999999999,24.366666666666664,96.66666666666667,11600.0,14.533333333333331,8.566666666666666,21.733333333333334,43.666666666666664,11360.0
Sabbie di Sopra al Bosco 2014,Italy,Terre del Volturno,Nanni Copé,3.8,101,31.96,2014-01-01,Terre del Volturno,Italy,41.02317,13.92577,14.0,8.166666666666666,19.933333333333334,,11740.0,23.666666666666668,17.266666666666666,30.633333333333336,,18640.0,17.633333333333336,12.566666666666668,23.566666666666666,150.5,11100.0
Roma Rosso 2018,Italy,Lazio,Poggio le Volpi,4.0,101,9.95,2018-01-01,Lazio,Italy,41.9808038,12.7662312,,,,,,,,,,,,,,,
Garnacha de Arrayán 2014,Spain,Castilla y León,Arrayán,3.7,101,21.9,2014-01-01,Castilla y León,Spain,41.55005,-5.1387401,8.466666666666667,3.0,13.933333333333332,66.66666666666667,12140.0,19.366666666666667,11.266666666666666,27.46666666666667,30.0,20640.0,12.5,6.733333333333334,18.23333333333333,40.0,11840.0
Cabernet Sauvignon 2018,Chile,Central Valley,Valdivieso,3.3,101,7.6,2018-01-01,Central Valley,Chile,-36.0,-72.0,,,,,,,,,,,,,,,
Terrenus Vinhas Velhas Reserva 2013,Portugal,Alentejano,Rui Reguinga,4.1,101,27.95,2013-01-01,Alentejano,Portugal,38.8421261,-7.5871012,,,,,,,,,,,,,,,
Fronsac 2005,France,Fronsac,Château Villars,3.8,101,25.95,2005-01-01,Fronsac,France,42.9509183,0.6487221,9.8,5.0,15.166666666666666,105.66666666666667,9560.0,19.7,14.233333333333334,25.5,38.0,13160.0,12.633333333333333,7.8,18.666666666666668,96.33333333333333,9460.0
Cuvée Charles de Batz Madiran 2014,France,Madiran,Domaine Berthoumieu,3.7,101,14.09,2014-01-01,Madiran,France,43.5502022,-0.0580853,11.8,7.75,16.4,,,19.85,15.35,24.8,,,12.2,8.7,16.6,,
Stony Terrace Cabernet Sauvignon 2016,United States,Napa Valley,Rutherford Wine Company,3.8,101,18.03,2016-01-01,Napa Valley,United States,38.8484702,-94.413093,,,,,,,,,,,,,,,
12 e Mezzo Puglia Primitivo Organic Wine 2016,Italy,Puglia,Varvaglione,3.9,101,9.4,2016-01-01,Puglia,Italy,40.9842539,16.6210027,,,,,,,,,,,,,,,
El Abuelo Selección Edición Limitada 2013,Spain,Almansa,Bodegas Piqueras,4.2,101,10.95,2013-01-01,Almansa,Spain,38.8682065,-1.0978627,13.200000000000001,6.333333333333333,20.033333333333335,34.333333333333336,16540.0,25.599999999999998,17.2,33.96666666666666,3.6666666666666665,20580.0,15.333333333333334,9.866666666666667,20.799999999999997,82.66666666666667,12640.0
Sangre de Toro Special Selection 2017,Spain,Catalunya,Torres,3.6,101,8.9,2017-01-01,Catalunya,Spain,41.8523094,1.5745043,,,,,,,,,,,,,,,
Château Paul Mas Coteaux du Languedoc Clos des Mures 2018,France,Languedoc,Paul Mas,3.8,101,11.05,2018-01-01,Languedoc,France,43.6796869,1.3966515,13.666666666666666,8.566666666666668,19.799999999999997,75.8,,22.46666666666667,17.733333333333334,28.599999999999998,40.9,,13.666666666666666,9.466666666666667,19.099999999999998,26.433333333333334,
Merlot 2018,France,Pays d'Oc,Les Jamelles,3.6,101,5.36,2018-01-01,Pays d'Oc,France,43.604764,1.4540399,13.666666666666666,8.566666666666668,19.799999999999997,75.8,,22.46666666666667,17.733333333333334,28.599999999999998,40.9,,13.666666666666666,9.466666666666667,19.099999999999998,26.433333333333334,
Roscaleto Barbera d'Alba 2015,Italy,Barbera d'Alba,Enzo Boglietti,3.9,101,31.18,2015-01-01,Barbera d'Alba,Italy,44.7712158,8.0435811,12.633333333333333,9.6,16.166666666666668,68.33333333333333,11300.0,19.3,16.166666666666668,22.833333333333332,109.66666666666667,11340.0,13.533333333333333,11.666666666666666,15.766666666666667,96.0,7340.0
Barolo Cannubi 2014,Italy,Barolo,Giacomo Fenocchio,4.0,101,39.9,2014-01-01,Barolo,Italy,44.6108408,7.9428448,,,,,,,,,,,,,,,
Pauillac (Premier Grand Cru Classé) 2017,France,Pauillac,Château Mouton Rothschild,4.6,101,633.62,2017-01-01,Pauillac,France,45.1995626,-0.7484994,12.066666666666668,8.1,17.233333333333334,87.46666666666665,,20.566666666666666,15.433333333333335,26.7,32.833333333333336,,14.5,10.233333333333334,19.866666666666664,54.199999999999996,
Cabernet Sauvignon 2014,United States,Washington,Stimson Estate Cellars,3.3,101,8.29,2014-01-01,Washington,United States,38.8950368,-77.0365427,13.6,8.633333333333333,18.533333333333335,71.0,,25.7,21.53333333333333,29.900000000000002,133.0,,15.600000000000001,10.833333333333334,20.4,88.0,
Côte-Rôtie Le Gallet Blanc 2017,France,Côte-Rôtie,Francois Villard,4.4,101,48.0,2017-01-01,Côte-Rôtie,France,44.7267925,-0.3900425,12.066666666666668,8.1,17.233333333333334,87.46666666666665,,20.566666666666666,15.433333333333335,26.7,32.833333333333336,,14.5,10.233333333333334,19.866666666666664,54.199999999999996,
Capatosta 2015,Italy,Toscana,Poggio Argentiera,3.8,101,19.9,2015-01-01,Toscana,Italy,43.4586541,11.1389204,,,,,,,,,,,,,,,
Constance Madiran 2015,France,Madiran,Domaine Berthoumieu,3.8,101,9.5,2015-01-01,Madiran,France,43.5502022,-0.0580853,,,,,,,,,,,,,,,
Oak Cask Malbec 2019,Argentina,Mendoza,Trapiche,3.7,1010,7.36,2019-01-01,Mendoza,Argentina,-34.787093,-68.4381868,16.133333333333336,11.0,,,,7.466666666666666,0.44999999999999996,20.3,,,16.400000000000002,9.0,24.8,,
Amancaya Malbec - Cabernet Sauvignon 2017,Argentina,Mendoza,Caro (Catena and Rothschild),4.0,1010,16.8,2017-01-01,Mendoza,Argentina,-34.787093,-68.4381868,13.800000000000002,,,,,8.733333333333333,0.8,,,,15.766666666666666,,,,
Laccento Ruché di Castagnole Monferrato 2017,Italy,Ruchè,Montalbera,4.0,1012,19.9,2017-01-01,Ruchè,Italy,45.6350879,10.494352,,,,,,,,,,,,,,,
San Leonardo 2011,Italy,Vigneti delle Dolomiti,San Leonardo,4.3,1012,48.64,2011-01-01,Vigneti delle Dolomiti,Italy,46.38333,11.85,,,,,,,,,,,,,,,
Fausto Tannat 2015,Brazil,Serra Gaúcha,Pizzato,3.6,1012,11.35,2015-01-01,Serra Gaúcha,Brazil,-29.1551147,-51.5153447,,,,,,,,,,,,,,,
Pauillac (Grand Cru Classé) 2007,France,Pauillac,Château Pichon Baron,4.4,1014,119.0,2007-01-01,Pauillac,France,45.1995626,-0.7484994,13.066666666666668,8.566666666666668,18.2,86.33333333333333,10740.0,21.8,16.5,27.733333333333334,47.666666666666664,14260.0,16.533333333333335,12.6,21.666666666666668,73.66666666666667,10000.0
Disciples 2016,United States,Napa Valley,The Crane Assembly,4.3,1014,53.61,2016-01-01,Napa Valley,United States,38.8484702,-94.413093,,,,,,,,,,,,,,,
Zinfandel 2015,United States,Mendocino County,Bonterra,3.6,1015,16.75,2015-01-01,Mendocino County,United States,39.3176491,-123.4126399,,,,,,,,,,,,,,,
Margaux 2010,France,Margaux,Château Labégorce,4.0,1016,40.95,2010-01-01,Margaux,France,45.0463335,-0.6729117,12.866666666666667,8.200000000000001,18.3,75.0,12320.0,21.066666666666666,15.699999999999998,27.066666666666666,48.666666666666664,16540.0,15.100000000000001,11.033333333333333,20.36666666666667,95.66666666666667,10040.0
La Luna e i Falò Barbera d'Asti Superiore 2015,Italy,Barbera d'Asti,Vite Colte,3.8,1016,11.49,2015-01-01,Barbera d'Asti,Italy,44.8524808,8.2414532,,,,,,,,,,,,,,,
Ribera del Duero 2015,Spain,Ribera del Duero,Garmón,4.2,1017,38.8,2015-01-01,Ribera del Duero,Spain,41.6657566,-3.6863295,10.0,3.8000000000000003,16.166666666666668,39.0,13540.0,17.833333333333336,10.533333333333333,25.099999999999998,30.333333333333332,18540.0,13.466666666666667,7.933333333333334,19.0,66.0,9960.0
Les Jardins Rouge 2018,France,Faugères,Saint Antonin,3.8,102,7.95,2018-01-01,Faugères,France,43.5648186,3.1901144,13.8,8.1,19.5,,,,,,,,16.9,12.3,22.1,,
Nero d'Avola - Syrah 2018,Italy,Terre Siciliane,Roccaperciata,3.7,102,4.75,2018-01-01,Terre Siciliane,Italy,42.83333,12.83333,,,,,,,,,,,,,,,
La Bienquerida 2013,Spain,Bierzo,Losada,4.1,102,35.97,2013-01-01,Bierzo,Spain,42.60645,-6.8097712,12.6,6.133333333333333,19.1,49.0,13580.0,20.133333333333333,12.833333333333334,27.400000000000002,20.666666666666668,18340.0,13.766666666666666,7.8,19.766666666666666,45.0,10380.0
Bonera 2018,Italy,Terre Siciliane,Mandrarossa,3.7,102,9.5,2018-01-01,Terre Siciliane,Italy,42.83333,12.83333,,,,,,,,,,,,,,,
Noi 4 Bolgheri 2016,Italy,Bolgheri,Tenuta dei Sette Cieli,4.0,102,23.5,2016-01-01,Bolgheri,Italy,43.2340065,10.6179334,,,,,,,,,,,,,,,
Pinot Noir 2016,New Zealand,Marlborough,Clos Henri Vineyard,3.9,102,27.78,2016-01-01,Marlborough,New Zealand,-41.4744747,173.8330263,,,,,,,,,,,,,,,
Saint-Émilion Grand Cru 2005,France,Saint-Émilion Grand Cru,Château Grand Barrail Lamarzelle Figeac,3.9,102,39.95,2005-01-01,Saint-Émilion Grand Cru,France,44.847147,-0.547337,11.966666666666667,7.433333333333334,17.0,58.666666666666664,11780.0,20.766666666666666,15.700000000000001,26.333333333333332,45.333333333333336,15520.0,14.199999999999998,10.433333333333332,19.0,53.0,8700.0
Gran Selección Tempranillo 2017,Spain,Castilla,Viña San Juan,3.4,102,6.75,2017-01-01,Castilla,Spain,40.4763551,-3.6800358,,7.666666666666667,17.766666666666666,63.666666666666664,,,19.5,33.333333333333336,4.166666666666667,,,11.933333333333335,21.2,59.73333333333333,
Syrah 2017,South Africa,Paarl,Glen Carlou,3.9,102,18.25,2017-01-01,Paarl,South Africa,-33.7310282,18.9642117,17.6,10.966666666666667,,,,11.799999999999999,5.433333333333333,21.2,,,20.1,12.0,,,
Zweigelt 2017,Austria,Burgenland,Judith Beck,3.9,102,10.6,2017-01-01,Burgenland,Austria,47.5000001,16.4166666,,,,,,21.9,16.7,27.4,,,9.7,6.2,13.7,,
Saint-Émilion Grand Cru 2015,France,Saint-Émilion Grand Cru,Château Vieux Clos St. Emilion,4.1,102,23.09,2015-01-01,Saint-Émilion Grand Cru,France,44.847147,-0.547337,13.066666666666668,8.433333333333334,18.400000000000002,80.66666666666667,11840.0,20.3,15.6,25.700000000000003,66.0,14940.0,16.5,12.299999999999999,22.03333333333333,64.33333333333333,10860.0
Listán Negro 2017,Spain,Lanzarote,Bermejo,3.6,102,17.95,2017-01-01,Lanzarote,Spain,29.0397081,-13.6362916,19.066666666666666,15.566666666666668,23.733333333333334,1.7333333333333332,,24.099999999999998,20.599999999999998,29.8,0.0,,22.266666666666666,19.03333333333333,27.066666666666666,21.933333333333337,
Viile Metamorfosis Merlot 2015,Romania,Dealu Mare,Vitis Metamorfosis,3.5,102,7.5,2015-01-01,Dealu Mare,Romania,46.0417098,22.7959016,,,,,,,,,,,,,,,
Merlot - Cabernet Sauvignon - Petit Verdot 2014,South Africa,Walker Bay,Creation,3.9,102,12.48,2014-01-01,Walker Bay,South Africa,-34.518515,19.2880206,,,,,,,,,,,,,,,
RWT Shiraz 2017,Australia,Barossa Valley,Penfolds,4.4,102,229.0,2017-01-01,Barossa Valley,Australia,-34.5817132,138.9987872,16.433333333333334,10.933333333333332,23.03333333333333,30.05,,9.533333333333333,5.3,14.166666666666666,78.95,,13.066666666666665,7.1000000000000005,19.5,83.83333333333333,
Fronton 2018,France,Fronton,Château Bellevue La Forét,3.5,102,6.95,2018-01-01,Fronton,France,43.840295,1.390285,,,,,,,,,,,,,,,
Costers Del Gravet Montsant 2013,Spain,Montsant,Capçanes,3.7,102,13.95,2013-01-01,Montsant,Spain,41.1171253,1.211005,15.133333333333333,9.700000000000001,20.566666666666666,33.0,13860.0,24.733333333333334,20.1,29.366666666666664,19.0,14850.0,17.8,13.0,22.599999999999998,75.0,9340.0
Merlot 2018,Italy,Terre Siciliane,Cusumano,3.4,102,7.9,2018-01-01,Terre Siciliane,Italy,42.83333,12.83333,,,,,,,,,,,,,,,
Pinot Noir 2015,Austria,Burgenland,Paul Achs,3.7,102,33.05,2015-01-01,Burgenland,Austria,47.5000001,16.4166666,,,,,,18.9,14.4,23.9,,,,,,,
Coume de l'Olla Rouge 2019,France,Vin de France,Matassa,4.1,102,16.96,2019-01-01,Vin de France,France,50.2767373,3.977096,,,,,,,,,,,,,,,
Schwarzer 2017,Germany,Pfalz,Weingut Metzger,3.6,102,13.15,2017-01-01,Pfalz,Germany,53.8156324,13.3702287,,,,,,,,,,,,,,,
Haut-Médoc 2015,France,Haut-Médoc,Château Beaumont,3.8,1020,17.36,2015-01-01,Haut-Médoc,France,45.1445995,-0.7357492,13.066666666666668,8.433333333333334,18.400000000000002,80.66666666666667,11840.0,20.3,15.6,25.700000000000003,66.0,14940.0,16.5,12.299999999999999,22.03333333333333,64.33333333333333,10860.0
Bourgogne Pinot Noir (La Vignée) 2015,France,Bourgogne,Bouchard Père & Fils,3.6,1020,17.59,2015-01-01,Bourgogne,France,49.3555104,4.0681417,,,,,,,,,,,,,,,
Pinot Noir 2017,South Africa,Hemel-en-Aarde Valley,Hamilton Russell Vineyards,4.2,1022,49.09,2017-01-01,Hemel-en-Aarde Valley,South Africa,-34.39455,19.22012,,,,,,,,,,,,,,,
Zinfandel 2016,United States,California,Geyser Peak,3.7,1023,10.9,2016-01-01,California,United States,36.7014631,-118.755997,,,,,,,,,,,,,,,
Valpolicella Ripasso Classico Superiore 2017,Italy,Valpolicella Ripasso Classico,Bolla,3.7,1024,15.5,2017-01-01,Valpolicella Ripasso Classico,Italy,42.83333,12.83333,,,,,,,,,,,,,,,
Rosso di Montalcino 2015,Italy,Rosso di Montalcino,Castiglion del Bosco,3.9,1025,26.5,2015-01-01,Rosso di Montalcino,Italy,43.055612,11.3592953,,,,,,,,,,,,,,,
Ripanço Private Selection Alentejano 2016,Portugal,Alentejano,José Maria da Fonseca,3.7,1026,8.6,2016-01-01,Alentejano,Portugal,38.8421261,-7.5871012,,,,,,,,,,,,,,,
Riserva Cannonau di Sardegna 2017,Italy,Cannonau di Sardegna,Sella & Mosca,3.8,1027,10.66,2017-01-01,Cannonau di Sardegna,Italy,40.2568502,9.6218801,,,,,,,,,,,,,,,
60 Sessantanni Old Vines Primitivo di Manduria 2016,Italy,Primitivo di Manduria,San Marzano,4.4,1028,17.24,2016-01-01,Primitivo di Manduria,Italy,40.4002788,17.6374622,,,,,,,,,,,,,,,
Kith & Kin Cabernet Sauvignon 2017,United States,Napa Valley,Round Pond Estate,4.2,1028,38.5,2017-01-01,Napa Valley,United States,38.8484702,-94.413093,,,,,,,,,,,,,,,
Zinfandel 2017,United States,California,Rombauer Vineyards,4.3,1029,34.12,2017-01-01,California,United States,36.7014631,-118.755997,,,,,,,,,,,,,,,
Cerro Añon Rioja Gran Reserva 2011,Spain,Rioja,Bodegas Olarra,4.1,103,14.65,2011-01-01,Rioja,Spain,42.3285528,-2.4674917,12.433333333333332,6.400000000000001,18.466666666666665,21.333333333333332,12980.0,21.833333333333332,15.0,28.7,26.166666666666668,18040.0,13.800000000000002,8.066666666666668,19.499999999999996,31.333333333333332,10540.0
Bush Vine GSM (Shiraz - Grenache - Mourvedre) 2013,Australia,McLaren Vale,Geoff Merrill,4.0,103,14.57,2013-01-01,McLaren Vale,Australia,-35.2172617,138.5416998,,13.166666666666666,21.766666666666666,53.93333333333333,,,8.6,14.9,61.0,,,11.866666666666667,22.2,25.599999999999998,
Plaer Vinyes Velles 2016,Spain,Priorat,Acustic Celler,4.1,103,26.18,2016-01-01,Priorat,Spain,41.2137983,0.8116236,16.96666666666667,9.6,21.900000000000002,17.833333333333332,,25.933333333333334,20.066666666666666,30.733333333333334,24.366666666666664,,17.599999999999998,12.200000000000001,23.53333333333333,60.73333333333334,
Cabernet - Shiraz 2016,Spain,La Mancha,Añoranza,3.4,103,3.95,2016-01-01,La Mancha,Spain,28.3774367,-16.6977504,,5.400000000000001,13.033333333333333,18.466666666666665,,16.65,11.466666666666667,20.03333333333333,29.099999999999998,,8.95,6.966666666666666,14.200000000000001,37.43333333333334,
Saint-Émilion Grand Cru 2014,France,Saint-Émilion Grand Cru,Château La Confession,3.9,103,26.9,2014-01-01,Saint-Émilion Grand Cru,France,44.847147,-0.547337,11.399999999999999,7.233333333333334,16.400000000000002,72.0,9820.0,20.8,15.666666666666666,26.399999999999995,84.0,16120.0,14.5,11.066666666666668,19.03333333333333,99.33333333333333,7620.0
Comte de Sénéjac Haut-Médoc 2011,France,Haut-Médoc,Château Sénéjac,3.7,103,16.83,2011-01-01,Haut-Médoc,France,45.1445995,-0.7357492,12.5,7.666666666666667,18.033333333333335,45.333333333333336,12600.0,20.566666666666666,15.266666666666667,26.5,44.666666666666664,15300.0,13.533333333333331,9.433333333333334,18.599999999999998,110.66666666666667,10060.0
Gran Masetto Teroldego 2014,Italy,Trentino,Endrizzi,4.4,103,39.9,2014-01-01,Trentino,Italy,46.1029536,11.1297425,-0.6999999999999998,-2.933333333333333,1.7333333333333332,84.33333333333333,7740.0,10.333333333333334,7.1000000000000005,14.333333333333334,54.0,14820.0,3.033333333333333,0.7999999999999998,5.333333333333333,105.33333333333333,6980.0
Barolo Mariondino 2015,Italy,Barolo,Parusso,4.1,103,39.9,2015-01-01,Barolo,Italy,44.6108408,7.9428448,,,,,,,,,,,,,,,
Crianza 2016,Spain,Rioja,Berceo,3.6,103,9.9,2016-01-01,Rioja,Spain,42.3285528,-2.4674917,13.566666666666668,7.766666666666666,20.133333333333333,30.33333333333333,,22.53333333333333,15.5,30.666666666666668,58.56666666666667,,14.0,9.0,20.0,26.8,
Apogee Pepper Bridge Vineyard 2013,United States,Walla Walla Valley,L'Ecole No 41,4.1,103,46.9,2013-01-01,Walla Walla Valley,United States,36.2399704,-112.2245586,,5.65,23.23333333333333,1.8666666666666665,,,,,,,,,,,
Gamma Red Blend 2018,Spain,Navarra,Bodegas Piedemonte,3.4,103,6.15,2018-01-01,Navarra,Spain,42.6125488,-1.8307877,12.633333333333333,5.766666666666666,20.3,52.833333333333336,,20.799999999999997,14.5,29.433333333333334,44.699999999999996,,12.866666666666667,6.966666666666666,19.7,40.8,
Peyres Nobles Rouge 2018,France,Corbières,Château Camplong,4.0,103,6.5,2018-01-01,Corbières,France,43.0547547,1.9970557,,,,,,,,,,,12.55,8.65,17.25,,
Lemartine Toscana 2015,Italy,Toscana,Poggio Antico,4.1,103,29.67,2015-01-01,Toscana,Italy,43.4586541,11.1389204,,,,,,,,,,,,,,,
Organic Cabernet 2018,Australia,South Australia,Farm Hand,3.7,103,7.79,2018-01-01,South Australia,Australia,-30.5343665,135.6301212,19.7,11.633333333333333,27.633333333333336,30.3,,12.333333333333334,4.733333333333333,20.466666666666665,0.0,,20.833333333333332,12.6,29.099999999999998,16.26666666666667,
Pomerol 1999,France,Pomerol,Château Nénin,4.1,103,240.0,1999-01-01,Pomerol,France,44.9311234,-0.1999904,13.1,8.5,18.5,94.0,11260.0,20.166666666666664,14.766666666666666,26.400000000000002,42.333333333333336,14720.0,13.066666666666668,9.3,18.099999999999998,136.0,8360.0
Malterdinger Alte Reben Spätburgunder 2016,Germany,Baden,Bernhard Huber,4.1,103,38.69,2016-01-01,Baden,Germany,53.0023496,9.0820955,,,,,,,,,,,,,,,
Cabernet Franc 2012,South Africa,Franschhoek,Anthonij Rupert,4.2,103,59.95,2012-01-01,Franschhoek,South Africa,-33.909167,19.119444,17.5,12.0,27.0,,,10.9,5.6,20.6,,,18.2,11.6,28.3,,
Saint-Émilion Grand Cru (Premier Grand Cru Classé) 2002,France,Saint-Émilion Grand Cru,Château Valandraud,4.4,103,193.02,2002-01-01,Saint-Émilion Grand Cru,France,44.847147,-0.547337,13.233333333333334,9.233333333333334,17.766666666666666,82.66666666666667,8660.0,20.76666666666667,15.666666666666666,26.3,48.0,14220.0,13.633333333333333,9.499999999999998,18.599999999999998,60.0,9120.0
Bramare Rebon Vineyard Malbec 2017,Argentina,Mendoza,Viña Cobos,4.6,103,75.07,2017-01-01,Mendoza,Argentina,-34.787093,-68.4381868,13.800000000000002,,,,,8.733333333333333,0.8,,,,15.766666666666666,,,,
Merlot Reserva 2008,Brazil,Vale dos Vinhedos,Pizzato,3.2,103,15.9,2008-01-01,Vale dos Vinhedos,Brazil,-29.1790429,-51.5789598,,,,,,,,,,,,,,,
Brunello di Montalcino Pianrosso 2015,Italy,Brunello di Montalcino,Ciacci Piccolomini d'Aragona,4.4,103,66.29,2015-01-01,Brunello di Montalcino,Italy,43.3204995,11.3281859,,,,,,,,,,,,,,,
François de Tournon Saint-Joseph 2016,France,Saint-Joseph,Delas,3.9,103,29.15,2016-01-01,Saint-Joseph,France,49.5344534,-1.529802,,,,,,,,,,,,,,,
Estibals Minervois 2018,France,Minervois,L'Ostal Cazes,3.6,103,10.99,2018-01-01,Minervois,France,43.2718,2.52099,,,,,,,,,,,12.55,8.65,17.25,,
Barbera - Garnacha 2017,Chile,Maule Valley,Erasmo,3.5,103,12.62,2017-01-01,Maule Valley,Chile,-30.0,-71.0,15.700000000000001,13.600000000000001,,5.1,,12.066666666666668,8.3,,,,14.1,,,,
Roi des Lézards 2014,France,Côtes Catalanes,Domaine Les Enfants Sauvages,3.9,103,19.4,2014-01-01,Côtes Catalanes,France,42.74503,2.896873,13.033333333333333,9.033333333333333,17.400000000000002,81.0,11120.0,23.566666666666666,18.5,28.900000000000002,20.666666666666668,17200.0,16.900000000000002,13.200000000000001,21.033333333333335,58.666666666666664,10820.0
One Point Five Cabernet Sauvignon 2016,United States,Stags Leap District,Shafer,4.5,1030,120.01,2016-01-01,Stags Leap District,United States,36.578676,-79.389888,,,,,,,,,,,,,,,
Barbaresco 2013,Italy,Barbaresco,Gaja,4.4,1030,199.9,2013-01-01,Barbaresco,Italy,44.7254469,8.0806959,,,,,,,,,,,,,,,
Saint-Julien (Grand Cru Classé) 2006,France,Saint-Julien,Château Branaire-Ducru,3.9,1030,59.54,2006-01-01,Saint-Julien,France,47.4019947,5.1364639,10.633333333333333,5.766666666666667,15.833333333333334,76.66666666666667,10820.0,19.8,13.866666666666665,25.900000000000002,26.333333333333332,15160.0,11.766666666666667,7.666666666666667,16.900000000000002,57.333333333333336,9060.0
Médoc 2012,France,Médoc,Château Potensac,3.8,1033,39.69,2012-01-01,Médoc,France,49.3524933,6.1542002,,,,,,,,,,,,,,,
Pieve Santa Restituta Brunello di Montalcino 2014,Italy,Brunello di Montalcino,Gaja,4.3,1035,59.9,2014-01-01,Brunello di Montalcino,Italy,43.3204995,11.3281859,,,,,,,,,,,,,,,
Gran Maestro Primitivo di Manduria 2017,Italy,Primitivo di Manduria,Maestro Italiano,4.1,1036,9.75,2017-01-01,Primitivo di Manduria,Italy,40.4002788,17.6374622,,,,,,,,,,,,,,,
Saint-Julien (Grand Cru Classé) 2011,France,Saint-Julien,Château Léoville Barton,4.2,1037,87.24,2011-01-01,Saint-Julien,France,47.4019947,5.1364639,9.999999999999998,5.066666666666666,15.166666666666666,47.333333333333336,11260.0,19.366666666666664,14.066666666666668,24.833333333333332,96.0,14140.0,10.4,6.6000000000000005,14.9,70.66666666666667,7760.0
Inferno (Aged in Whiskey Barrels - Limited Release) 2017,United States,California,Apothic,3.8,1037,14.56,2017-01-01,California,United States,36.7014631,-118.755997,,,,,,,,,,,,,,,
Pessac-Léognan (Grand Cru Classé de Graves) 2007,France,Pessac-Léognan,Château Pape Clément,4.3,1037,161.1,2007-01-01,Pessac-Léognan,France,44.718997,-0.60521,13.066666666666668,8.566666666666668,18.2,86.33333333333333,10740.0,21.8,16.5,27.733333333333334,47.666666666666664,14260.0,16.533333333333335,12.6,21.666666666666668,73.66666666666667,10000.0
Faithful Hound Red 2015,South Africa,Stellenbosch,Mulderbosch,4.0,1038,14.9,2015-01-01,Stellenbosch,South Africa,-33.934444,18.869167,18.033333333333335,12.799999999999999,23.233333333333334,40.0,14380.0,13.166666666666666,8.233333333333333,18.166666666666668,101.66666666666667,10820.0,17.666666666666668,12.066666666666668,23.266666666666666,17.666666666666668,17700.0
Serego Alighieri Vaio Armaron Amarone della Valpolicella Classico 2012,Italy,Amarone della Valpolicella,Masi,4.3,1039,69.0,2012-01-01,Amarone della Valpolicella,Italy,42.83333,12.83333,,,,,,,,,,,,,,,
Rosso di Montalcino 2018,Italy,Rosso di Montalcino,Talenti,3.7,104,14.43,2018-01-01,Rosso di Montalcino,Italy,43.055612,11.3592953,,,,,,,,,,,,,,,
Chianti 2017,Italy,Chianti,Sammontana,3.7,104,8.9,2017-01-01,Chianti,Italy,43.5824597,11.3168731,16.2,10.55,22.1,,,24.900000000000002,18.466666666666665,31.233333333333334,,,19.5,14.45,25.35,,
Azul 2015,Spain,Ribera del Queiles,Guelbenzu,3.8,104,6.99,2015-01-01,Ribera del Queiles,Spain,40.0,-4.0,15.9,9.1,22.7,22.333333333333332,17600.0,25.133333333333336,17.666666666666668,32.63333333333333,9.666666666666666,22860.0,17.866666666666667,12.233333333333333,23.46666666666667,63.0,13180.0
Sanct Valentin Riserva Pinot Noir 2017,Italy,Südtirol - Alto Adige,St. Michael-Eppan,4.1,104,33.2,2017-01-01,Südtirol - Alto Adige,Italy,46.441472,11.282121,,,,,,,,,,,,,,,
Mas Collet Barrica 2009,Spain,Montsant,Capçanes,3.5,104,21.91,2009-01-01,Montsant,Spain,41.1171253,1.211005,13.700000000000001,8.299999999999999,19.066666666666666,62.0,13800.0,22.400000000000002,17.166666666666668,27.633333333333336,29.0,17440.0,15.266666666666667,10.033333333333333,20.5,78.33333333333333,11260.0
Valpolicella Ripasso Classico Superiore 2016,Italy,Valpolicella Ripasso Classico,Paolo Cottini,4.0,104,16.9,2016-01-01,Valpolicella Ripasso Classico,Italy,42.83333,12.83333,,,,,,,,,,,,,,,
Toscana Poggio Ai Merli 2016,Italy,Toscana,Castellare,4.3,104,69.0,2016-01-01,Toscana,Italy,43.4586541,11.1389204,,,,,,,,,,,,,,,
Viña Aljibes Red Blend 2016,Spain,Castilla,Finca Los Aljibes,3.4,104,8.2,2016-01-01,Castilla,Spain,40.4763551,-3.6800358,,9.9,21.533333333333335,27.933333333333334,,,20.03333333333333,33.333333333333336,17.166666666666668,,,11.5,20.933333333333334,33.5,
Châteauneuf-du-Pape (La Crau) 2017,France,Châteauneuf-du-Pape,Domaine du Vieux Télégraphe,4.4,104,79.95,2017-01-01,Châteauneuf-du-Pape,France,44.055989,4.8317351,14.65,9.1,20.299999999999997,,,24.05,16.95,30.799999999999997,,,15.133333333333335,9.6,20.666666666666664,,
Châteauneuf-Du-Pape La Paillousse Terroir D'Exception Rouge 2015,France,Châteauneuf-du-Pape,Pierre Amadieu,4.0,104,26.23,2015-01-01,Châteauneuf-du-Pape,France,44.055989,4.8317351,,,,,,,,,,,,,,,
Mencia 2015,Spain,Valdeorras,Viña Costeira,3.2,104,8.28,2015-01-01,Valdeorras,Spain,42.3483416,-6.9659982,13.433333333333332,6.8,20.099999999999998,38.0,14540.0,20.566666666666666,13.200000000000001,27.933333333333334,19.333333333333332,18820.0,15.233333333333334,10.033333333333333,20.46666666666667,96.0,9340.0
Santenay Clos de Malte 2016,France,Santenay,Louis Jadot,4.1,104,32.0,2016-01-01,Santenay,France,46.9115071,4.6996302,,,,,,,,,,,,,,,
Sudisfà Roero Riserva 2015,Italy,Roero,Negro Angelo,4.1,104,29.9,2015-01-01,Roero,Italy,44.7806865,7.9311892,12.633333333333333,9.6,16.166666666666668,68.33333333333333,11300.0,19.3,16.166666666666668,22.833333333333332,109.66666666666667,11340.0,13.533333333333333,11.666666666666666,15.766666666666667,96.0,7340.0
Léa Les Aspres Côtes du Roussillon Rouge 2012,France,Côtes du Roussillon,Domaine Lafage,4.0,104,19.95,2012-01-01,Côtes du Roussillon,France,45.3709088,4.8124715,14.466666666666667,8.6,20.466666666666665,35.0,,20.5,15.100000000000001,26.066666666666666,101.66666666666667,,13.833333333333334,9.6,19.166666666666668,50.333333333333336,
Alleanza 2012,Italy,Toscana,Castello di Gabbiano,4.1,104,26.95,2012-01-01,Toscana,Italy,43.4586541,11.1389204,,,,,,,,,,,,,,,
Valpolicella Ripasso Classico Superiore Solane 2015,Italy,Valpolicella Ripasso,Santi,3.7,1040,14.75,2015-01-01,Valpolicella Ripasso,Italy,42.83333,12.83333,,,,,,,,,,,,,,,
Crianza 2015,Spain,Binissalem-Mallorca,Bodegas José L. Ferrer,3.8,1040,11.95,2015-01-01,Binissalem-Mallorca,Spain,39.6002717,2.6720865,,,,,,,,,,,,,,,
Courela Tinto 2016,Portugal,Alentejano,Cortes de Cima,3.6,1040,5.65,2016-01-01,Alentejano,Portugal,38.8421261,-7.5871012,,,,,,,,,,,,,,,
Barbera d'Alba Tre Vigne 2015,Italy,Barbera d'Alba,Vietti,3.8,1040,19.5,2015-01-01,Barbera d'Alba,Italy,44.7712158,8.0435811,12.633333333333333,9.6,16.166666666666668,68.33333333333333,11300.0,19.3,16.166666666666668,22.833333333333332,109.66666666666667,11340.0,13.533333333333333,11.666666666666666,15.766666666666667,96.0,7340.0
No Name 2014,Italy,Piemonte,Borgogno,4.0,1041,34.32,2014-01-01,Piemonte,Italy,45.060735,7.923549,8.733333333333334,5.866666666666667,12.333333333333334,141.33333333333334,8260.0,20.933333333333334,17.133333333333333,24.633333333333336,94.33333333333333,14980.0,12.299999999999999,9.966666666666667,15.033333333333333,64.0,6980.0
Rioja Bordón Reserva 2011,Spain,Rioja,Franco-Espanolas,3.8,1045,10.85,2011-01-01,Rioja,Spain,42.3285528,-2.4674917,12.433333333333332,6.400000000000001,18.466666666666665,21.333333333333332,12980.0,21.833333333333332,15.0,28.7,26.166666666666668,18040.0,13.800000000000002,8.066666666666668,19.499999999999996,31.333333333333332,10540.0
Pian delle Vigne Brunello di Montalcino 2014,Italy,Brunello di Montalcino,Antinori,4.3,1046,45.6,2014-01-01,Brunello di Montalcino,Italy,43.3204995,11.3281859,,,,,,,,,,,,,,,
Almiréz 2016,Spain,Toro,Teso La Monja,4.0,1046,14.95,2016-01-01,Toro,Spain,41.5216963,-5.3939824,13.15,5.966666666666666,20.3,23.933333333333334,,23.2,15.433333333333332,31.5,29.066666666666666,,13.333333333333334,8.466666666666667,19.2,39.266666666666666,
Colheita Seleccionada Rouge 2010,Portugal,Alentejano,Rapariga da Quinta,3.2,1046,11.7,2010-01-01,Alentejano,Portugal,38.8421261,-7.5871012,,,,,,,,,,,,,,,
Ammasso Rosso Sicilia 2016,Italy,Sicilia,Barone Montalto,4.2,1047,16.34,2016-01-01,Sicilia,Italy,37.587794,14.155048,11.300000000000002,4.6,15.35,144.9,,21.833333333333332,,26.633333333333336,24.95,,14.833333333333334,,23.5,97.2,
Côtes du Rhône Nature Rouge 2016,France,Côtes-du-Rhône,Famille Perrin,3.6,1049,10.45,2016-01-01,Côtes-du-Rhône,France,44.7667285,4.8528701,,,,,,,,,,,,,,,
Russian River Valley Zinfandel 2015,United States,Russian River Valley,DeLoach,3.5,105,18.49,2015-01-01,Russian River Valley,United States,39.2789696,-123.1029778,,,,,,,,,,,,,,,
Saint-Julien (Grand Cru Classé) 2016,France,Saint-Julien,Château Léoville Las Cases,4.6,105,330.45,2016-01-01,Saint-Julien,France,47.4019947,5.1364639,11.266666666666666,,,31.2,,21.23333333333333,,,38.53333333333333,,10.899999999999999,4.75,13.45,46.1,
Halkidiki Limnio - Merlot 2013,Greece,Chalkidiki,Tsantali,3.2,105,12.49,2013-01-01,Chalkidiki,Greece,40.3309627,23.3621462,15.933333333333332,9.433333333333332,20.166666666666668,43.666666666666664,12720.0,29.0,20.833333333333332,33.36666666666667,7.0,21920.0,19.0,13.966666666666669,23.433333333333334,38.333333333333336,11900.0
Pomerol 2015,France,Pomerol,Château l'Ecuyer,4.2,105,43.16,2015-01-01,Pomerol,France,44.9311234,-0.1999904,13.066666666666668,8.433333333333334,18.400000000000002,80.66666666666667,11840.0,20.3,15.6,25.700000000000003,66.0,14940.0,16.5,12.299999999999999,22.03333333333333,64.33333333333333,10860.0
Toar Valpolicella Classico Superiore 2016,Italy,Valpolicella Classico,Masi,3.7,105,15.6,2016-01-01,Valpolicella Classico,Italy,42.83333,12.83333,,,,,,,,,,,,,,,
Arbòre Cannonau di Sardegna 2012,Italy,Cannonau di Sardegna,Gabbas,4.0,105,21.9,2012-01-01,Cannonau di Sardegna,Italy,40.2568502,9.6218801,,,,,,,,,,,,,,,
Ángeles de Amaren Tempranillo - Graciano 2015,Spain,Rioja,Bodegas Amaren,4.2,105,15.95,2015-01-01,Rioja,Spain,42.3285528,-2.4674917,13.6,7.2,20.0,34.0,13800.0,21.7,14.633333333333333,28.76666666666667,34.333333333333336,17480.0,16.599999999999998,10.700000000000001,22.53333333333333,46.0,10920.0
Barbera 2018,Italy,Piemonte,Serre dei Roveri,3.3,105,6.15,2018-01-01,Piemonte,Italy,45.060735,7.923549,12.200000000000001,9.166666666666666,17.25,41.13333333333333,,21.866666666666664,18.7,25.3,89.8,,12.933333333333332,10.866666666666667,15.733333333333334,17.099999999999998,
Amarone della Valpolicella 2006,Italy,Amarone della Valpolicella,Zýmē,4.5,105,96.9,2006-01-01,Amarone della Valpolicella,Italy,42.83333,12.83333,,,,,,,,,,,,,,,
Castillo de Jumilla Monastrell - Tempranillo 2018,Spain,Jumilla,Bleda,3.5,105,5.33,2018-01-01,Jumilla,Spain,38.4735408,-1.3285417,18.033333333333335,11.6,25.3,19.333333333333332,,27.533333333333335,21.633333333333336,34.56666666666667,15.066666666666668,,20.066666666666666,14.5,27.233333333333334,5.633333333333333,
Hommage Lirac 2016,France,Lirac,Domaine Coudoulis,3.9,105,19.01,2016-01-01,Lirac,France,44.0372,4.69136,,,,,,,,,,,,,,,
Poggio d'Arna Toscana 2014,Italy,Toscana,Tenuta di Sesta,3.6,105,12.9,2014-01-01,Toscana,Italy,43.4586541,11.1389204,,,,,,,,,,,,,,,
Vinya Le Havre Reserva Cabernet Sauvignon 2013,Spain,Penedès,Jean Leon,4.0,105,25.75,2013-01-01,Penedès,Spain,41.3463825,1.6995213,15.733333333333334,11.333333333333334,20.099999999999998,34.666666666666664,14360.0,26.133333333333336,22.2,30.0,24.0,16660.0,18.599999999999998,14.766666666666666,22.399999999999995,83.33333333333333,7480.0
Brunello di Montalcino 2014,Italy,Brunello di Montalcino,Tenute Silvio Nardi,3.8,105,32.75,2014-01-01,Brunello di Montalcino,Italy,43.3204995,11.3281859,,,,,,,,,,,,,,,
Sor Ugo Bolgheri Superiore 2017,Italy,Bolgheri Superiore,Aia Vecchia,4.3,105,23.94,2017-01-01,Bolgheri Superiore,Italy,44.46006,7.10425,9.533333333333333,5.55,16.433333333333334,70.53333333333333,,20.7,13.350000000000001,28.8,30.8,,10.633333333333333,7.85,20.5,101.10000000000001,
Ses Nines Negre 2018,Spain,Binissalem-Mallorca,Tianna Negre,3.8,105,11.25,2018-01-01,Binissalem-Mallorca,Spain,39.6002717,2.6720865,,,,,,,,,,,,,,,
Terrassen Zweigelt Blauer 2018,Austria,Wachau,Domäne Wachau,3.7,105,9.95,2018-01-01,Wachau,Austria,47.7286939,16.2263822,,,,,,,,,,,,,,,
Rosso di Montalcino 2018,Italy,Rosso di Montalcino,Ciacci Piccolomini d'Aragona,4.1,105,16.47,2018-01-01,Rosso di Montalcino,Italy,43.055612,11.3592953,,,,,,,,,,,,,,,
Riva Ranch Pinot Noir (Reliz Creek) 2017,United States,Arroyo Seco,Wente,3.9,105,24.15,2017-01-01,Arroyo Seco,United States,36.5160231,-105.5699891,,,,,,,,,,,,,,,
Altos R Tempranillo 2017,Spain,Rioja,Altos de Rioja,3.4,105,6.9,2017-01-01,Rioja,Spain,42.3285528,-2.4674917,11.766666666666666,6.333333333333333,17.866666666666667,30.8,,22.0,15.1,30.133333333333336,13.1,,14.666666666666666,9.233333333333334,21.366666666666664,32.0,
Amarone della Valpolicella Classico 2016,Italy,Amarone della Valpolicella Classico,Zenato,4.2,105,43.61,2016-01-01,Amarone della Valpolicella Classico,Italy,42.83333,12.83333,,,,,,,,,,,,,,,
Potenti Toscana (Suvereto) 2015,Italy,Toscana,Petra,3.9,105,39.58,2015-01-01,Toscana,Italy,43.4586541,11.1389204,,,,,,,,,,,,,,,
Trentatre 33 Rosso 2017,Italy,Salento,Rocca,3.6,105,6.95,2017-01-01,Salento,Italy,40.248604,15.190058,15.266666666666666,,20.8,,,24.099999999999998,,29.6,,,19.0,,26.8,,
Pievasciata Rosso 2016,Italy,Toscana,Vallepicciola,4.1,105,14.9,2016-01-01,Toscana,Italy,43.4586541,11.1389204,,,,,,,,,,,,,,,
Brunello di Montalcino 2013,Italy,Brunello di Montalcino,Tenute Silvio Nardi,3.9,1050,35.5,2013-01-01,Brunello di Montalcino,Italy,43.3204995,11.3281859,,,,,,,,,,,,,,,
The Barossan Shiraz 2017,Australia,Barossa Valley,Peter Lehmann,3.8,1051,16.48,2017-01-01,Barossa Valley,Australia,-34.5817132,138.9987872,16.433333333333334,10.933333333333332,23.03333333333333,30.05,,9.533333333333333,5.3,14.166666666666666,78.95,,13.066666666666665,7.1000000000000005,19.5,83.83333333333333,
Nero d'Avola 2017,Italy,Terre Siciliane,Colosi,3.8,1055,8.68,2017-01-01,Terre Siciliane,Italy,42.83333,12.83333,,,,,,,,,,,,,,,
Bordeaux 2015,France,Bordeaux,Jean-Pierre Moueix,3.5,1056,10.21,2015-01-01,Bordeaux,France,44.841225,-0.5800364,13.066666666666668,8.433333333333334,18.400000000000002,80.66666666666667,11840.0,20.3,15.6,25.700000000000003,66.0,14940.0,16.5,12.299999999999999,22.03333333333333,64.33333333333333,10860.0
Cabernet Sauvignon 2018,United States,California,Woodbridge by Robert Mondavi,3.4,1056,8.95,2018-01-01,California,United States,36.7014631,-118.755997,,,,,,,,,,,,,,,
Tinto 2018,Portugal,Lisboa,Porta 6,3.7,1056,9.12,2018-01-01,Lisboa,Portugal,38.7077507,-9.1365919,17.166666666666668,13.466666666666667,22.03333333333333,47.9,,22.633333333333336,18.400000000000002,28.233333333333334,2.433333333333333,,18.05,15.200000000000001,23.633333333333336,30.63333333333333,
Aglianico Rubrato 2014,Italy,Irpinia,Feudi di San Gregorio,3.5,1057,10.95,2014-01-01,Irpinia,Italy,39.2278067,9.1185486,15.5,,,,,24.333333333333332,,,,,19.266666666666666,,,,
Gran Verano Cabernet Sauvignon 2018,Chile,Central Valley,Apaltagua,3.4,1059,6.95,2018-01-01,Central Valley,Chile,-36.0,-72.0,,,,,,,,,,,,,,,
Grand Estates Merlot 2015,United States,Columbia Valley,Columbia Crest,3.7,1059,12.4,2015-01-01,Columbia Valley,United States,46.1576117,-122.9748352,,,,,,,,,,,,,,,
Saint-Julien (Grand Cru Classé) 2017,France,Saint-Julien,Château Beychevelle,4.0,106,86.76,2017-01-01,Saint-Julien,France,47.4019947,5.1364639,9.4,,16.85,119.3,,19.666666666666668,13.3,27.7,36.5,,11.799999999999999,7.433333333333333,16.633333333333333,72.39999999999999,
Copa Santa La Méjanelle 2015,France,Languedoc,Clavel,4.0,106,17.9,2015-01-01,Languedoc,France,43.6796869,1.3966515,13.133333333333333,8.533333333333333,18.466666666666665,49.333333333333336,12040.0,20.933333333333334,16.099999999999998,26.266666666666666,79.33333333333333,13660.0,16.900000000000002,12.299999999999999,22.366666666666664,46.666666666666664,11800.0
Cantodoro 2016,Italy,Sicilia,Feudo Arancio,3.6,106,8.5,2016-01-01,Sicilia,Italy,37.587794,14.155048,11.300000000000002,4.6,15.35,144.9,,21.833333333333332,,26.633333333333336,24.95,,14.833333333333334,,23.5,97.2,
Vitiano San Lorenzo 2014,Italy,Castel San Lorenzo,Falesco,3.9,106,11.95,2014-01-01,Castel San Lorenzo,Italy,40.418308,15.227157,,,,,,,,,,,,,,,
Disueri Nero d'Avola 2018,Italy,Sicilia,Cusumano,3.6,106,7.7,2018-01-01,Sicilia,Italy,37.587794,14.155048,,,,,,,,,,,,,,,
Kirschgarten Spatburgunder GG 2013,Germany,Pfalz,Knipser,4.2,106,39.95,2013-01-01,Pfalz,Germany,53.8156324,13.3702287,,,,,,,,,,,,,,,
B 2017,Spain,Ribera del Duero,Baden Numen,3.8,106,11.21,2017-01-01,Ribera del Duero,Spain,41.6657566,-3.6863295,8.833333333333334,2.733333333333333,13.366666666666667,79.60000000000001,,18.766666666666666,11.100000000000001,27.333333333333332,16.233333333333334,,11.4,5.766666666666667,18.433333333333334,43.1,
Pinot Noir 2017,Italy,Valle d'Aosta,Ottin - Viticulteur Encaveur,4.0,106,22.5,2017-01-01,Valle d'Aosta,Italy,45.730099,7.387426,,,,,,,,,,,,,,,
Protocolo Tinto 2018,Spain,Castilla,Dominio de Eguren,3.7,106,5.95,2018-01-01,Castilla,Spain,40.4763551,-3.6800358,,10.1,22.066666666666666,19.566666666666666,,26.6,19.7,33.0,26.666666666666668,,16.666666666666668,11.633333333333333,21.966666666666665,11.233333333333334,
Rouge 2016,France,Bordeaux,Bad Boy (Mauvais Garçon),3.9,106,16.9,2016-01-01,Bordeaux,France,44.841225,-0.5800364,13.233333333333334,8.933333333333332,18.599999999999998,33.53333333333333,,21.233333333333334,16.0,28.100000000000005,56.26666666666667,,13.9,10.166666666666666,19.266666666666666,46.333333333333336,
Côte de Nuits Villages Le Vaucrain 2016,France,Côte de Nuits Villages,Louis Jadot,4.0,106,32.0,2016-01-01,Côte de Nuits Villages,France,48.993539,2.061083,,,,,,,,,,,,,,,
Vino Nobile di Montepulciano 2016,Italy,Vino Nobile di Montepulciano,Talosa,3.9,106,17.79,2016-01-01,Vino Nobile di Montepulciano,Italy,43.0716467,11.8054771,,,,,,,,,,,,,,,
Yotuel Selección 2014,Spain,Ribera del Duero,Gallego Zapatero,3.6,106,15.75,2014-01-01,Ribera del Duero,Spain,41.6657566,-3.6863295,7.666666666666667,2.6999999999999997,12.566666666666668,69.33333333333333,9720.0,17.866666666666667,10.566666666666666,25.099999999999998,35.666666666666664,18900.0,11.733333333333333,6.866666666666666,16.6,50.666666666666664,9800.0
Lanzaga Rioja 2014,Spain,Rioja,Telmo Rodriguez,3.8,106,19.95,2014-01-01,Rioja,Spain,42.3285528,-2.4674917,11.266666666666666,5.8999999999999995,16.666666666666668,67.33333333333333,10520.0,21.566666666666666,14.6,28.5,31.333333333333332,18660.0,14.899999999999999,9.366666666666667,20.400000000000002,32.333333333333336,10540.0
Elysian Collection Merlot 2016,United States,California,Bonterra,3.8,106,26.7,2016-01-01,California,United States,36.7014631,-118.755997,,,,,,,,,,,,,,,
La Tiare du Pape Châteauneuf-du-Pape Rouge 2015,France,Châteauneuf-du-Pape,Maison Bouachon,3.9,106,45.0,2015-01-01,Châteauneuf-du-Pape,France,44.055989,4.8317351,,,,,,,,,,,,,,,
Spätburgunder Trocken 2015,Germany,Pfalz,Ökonomierat Rebholz,3.9,106,21.4,2015-01-01,Pfalz,Germany,53.8156324,13.3702287,,,,,,,,,,,,,,,
El Chocolatero Cariñena 2014,Spain,Cariñena,San Valero,3.2,106,7.75,2014-01-01,Cariñena,Spain,41.3382122,-1.2263149,,,,,,,,,,,,,,,
Hermitage La Chapelle Rouge 2016,France,Hermitage,Paul Jaboulet Aîné,4.3,106,249.95,2016-01-01,Hermitage,France,47.6406711,-2.7637153,,,,,,,,,,,,,,,
Mas Oliveras Tempranillo 2018,Spain,Catalunya,Ramón Roqueta,3.2,106,6.5,2018-01-01,Catalunya,Spain,41.8523094,1.5745043,,,,,,,,,,,,,,,
Pannobile 2015,Austria,Burgenland,Pittnauer,3.9,106,22.13,2015-01-01,Burgenland,Austria,47.5000001,16.4166666,,,,,,18.9,14.4,23.9,,,,,,,
Tempus 2018,Italy,Veneto,Stefano Accordini,3.8,106,10.42,2018-01-01,Veneto,Italy,45.6476663,11.8665254,14.666666666666666,7.3999999999999995,20.033333333333335,81.0,,24.833333333333332,19.266666666666666,31.9,76.75,,13.433333333333332,,20.85,,
Le Clos des Fées (Hervé Bizeul) 2013,France,Côtes du Roussillon,Domaine du Clos des Fées,4.1,106,52.53,2013-01-01,Côtes du Roussillon,France,45.3709088,4.8124715,13.033333333333333,8.066666666666666,18.333333333333336,73.66666666666667,,21.46666666666667,16.2,27.133333333333336,105.33333333333333,,13.466666666666669,9.833333333333334,17.8,93.33333333333333,
Tío Martín Crianza 2016,Spain,Rioja,D. Mateos,3.8,106,15.69,2016-01-01,Rioja,Spain,42.3285528,-2.4674917,13.566666666666668,7.766666666666666,20.133333333333333,30.33333333333333,,22.53333333333333,15.5,30.666666666666668,58.56666666666667,,14.0,9.0,20.0,26.8,
Vigna Del Mandorlo Dolcetto d'Alba 2017,Italy,Dolcetto d'Alba,Elvio Cogno,3.4,106,11.5,2017-01-01,Dolcetto d'Alba,Italy,42.83333,12.83333,,,,,,,,,,,,,,,
Barolo Bussia 2015,Italy,Barolo,Prunotto,4.1,106,69.0,2015-01-01,Barolo,Italy,44.6108408,7.9428448,,,,,,,,,,,,,,,
Tinto 2015,Spain,Rioja,Gran Familia,3.5,106,5.8,2015-01-01,Rioja,Spain,42.3285528,-2.4674917,13.6,7.2,20.0,34.0,13800.0,21.7,14.633333333333333,28.76666666666667,34.333333333333336,17480.0,16.599999999999998,10.700000000000001,22.53333333333333,46.0,10920.0
Finca Cuesta Clara Raro Reserva 2015,Spain,Rioja,Campillo,4.2,106,39.99,2015-01-01,Rioja,Spain,42.3285528,-2.4674917,13.6,7.2,20.0,34.0,13800.0,21.7,14.633333333333333,28.76666666666667,34.333333333333336,17480.0,16.599999999999998,10.700000000000001,22.53333333333333,46.0,10920.0
Fronsac 2005,France,Fronsac,Château la Vieille Cure,4.0,106,39.95,2005-01-01,Fronsac,France,42.9509183,0.6487221,9.8,5.0,15.166666666666666,105.66666666666667,9560.0,19.7,14.233333333333334,25.5,38.0,13160.0,12.633333333333333,7.8,18.666666666666668,96.33333333333333,9460.0
Ventoux 2016,France,Ventoux,Xavier Vignon,3.6,106,8.2,2016-01-01,Ventoux,France,48.6778082,2.1768592,,,,,,,,,,,11.766666666666666,8.133333333333335,15.066666666666668,,
Hussonet Cabernet Sauvignon Gran Reserva 2015,Chile,Maipo Valley,Haras de Pirque,3.7,1060,15.95,2015-01-01,Maipo Valley,Chile,-30.0,-71.0,13.233333333333334,10.433333333333332,17.500000000000004,0.3333333333333333,10300.0,10.966666666666669,8.033333333333333,15.566666666666668,21.333333333333332,10040.0,13.133333333333335,10.166666666666666,17.500000000000004,5.666666666666667,11320.0
Salice Salentino Riserva 2016,Italy,Salice Salentino,Marchese di Borgosole,3.9,1061,8.49,2016-01-01,Salice Salentino,Italy,40.3856618,17.9637483,,,,,,,,,,,,,,,
Chianti Classico 2016,Italy,Chianti Classico,Isole e Olena,3.9,1063,20.86,2016-01-01,Chianti Classico,Italy,43.3930219,11.3088538,,,,,,,,,,,,,,,
Joseph Meczan Pinot Nero - Blauburgunder Alto Adige 2016,Italy,Südtirol - Alto Adige,J. Hofstätter,3.6,1064,13.48,2016-01-01,Südtirol - Alto Adige,Italy,46.441472,11.282121,,,,,,,,,,,,,,,
Brunello di Montalcino 2014,Italy,Brunello di Montalcino,Tenuta Il Poggione,4.2,1065,36.63,2014-01-01,Brunello di Montalcino,Italy,43.3204995,11.3281859,,,,,,,,,,,,,,,
Cabernet Sauvignon 2015,United States,Columbia Valley,Columbia Winery,3.8,1065,17.75,2015-01-01,Columbia Valley,United States,46.1576117,-122.9748352,,,,,,,,,,,,,,,
Saint-Julien (Grand Cru Classé) 2009,France,Saint-Julien,Château Léoville Barton,4.4,1066,133.06,2009-01-01,Saint-Julien,France,47.4019947,5.1364639,10.366666666666667,5.8,15.4,84.33333333333333,9360.0,18.733333333333334,13.466666666666667,24.133333333333336,82.66666666666667,13080.0,10.133333333333333,6.466666666666666,14.466666666666669,71.33333333333333,7380.0
Pessac-Léognan (Grand Cru Classé de Graves) 2005,France,Pessac-Léognan,Château Smith Haut-Lafitte,4.4,1066,169.95,2005-01-01,Pessac-Léognan,France,44.718997,-0.60521,11.966666666666667,7.433333333333334,17.0,58.666666666666664,11780.0,20.766666666666666,15.700000000000001,26.333333333333332,45.333333333333336,15520.0,14.199999999999998,10.433333333333332,19.0,53.0,8700.0
Cabernet Sauvignon 2013,Mexico,Valle de Guadalupe,L. A. Cetto,3.4,1066,8.65,2013-01-01,Valle de Guadalupe,Mexico,21.0426533,-102.6798646,,,,,,,,,,,,,,,
Malbec 2017,Argentina,Mendoza,Catena,4.1,10676,13.5,2017-01-01,Mendoza,Argentina,-34.787093,-68.4381868,13.800000000000002,,,,,8.733333333333333,0.8,,,,15.766666666666666,,,,
Saint-Estèphe (Grand Cru Classé) 2009,France,Saint-Estèphe,Château Lafon-Rochet,4.2,1069,75.98,2009-01-01,Saint-Estèphe,France,45.5925,0.6633333,,,,,,,,,,,,,,,
Amarone della Valpolicella Classico 2014,Italy,Amarone della Valpolicella Classico,Bolla,4.1,1069,28.99,2014-01-01,Amarone della Valpolicella Classico,Italy,42.83333,12.83333,,,,,,,,,,,,,,,
Saint-Émilion Grand Cru (Premier Grand Cru Classé) 2014,France,Saint-Émilion Grand Cru,Château Belair-Monange,4.0,107,130.97,2014-01-01,Saint-Émilion Grand Cru,France,44.847147,-0.547337,11.399999999999999,7.233333333333334,16.400000000000002,72.0,9820.0,20.8,15.666666666666666,26.399999999999995,84.0,16120.0,14.5,11.066666666666668,19.03333333333333,99.33333333333333,7620.0
Margaux (Grand Cru Classé) 2017,France,Margaux,Château Lascombes,4.0,107,86.76,2017-01-01,Margaux,France,45.0463335,-0.6729117,12.066666666666668,8.1,17.233333333333334,87.46666666666665,,20.566666666666666,15.433333333333335,26.7,32.833333333333336,,14.5,10.233333333333334,19.866666666666664,54.199999999999996,
Pauillac (Grand Cru Classé) 2017,France,Pauillac,Château d'Armailhac,3.9,107,52.64,2017-01-01,Pauillac,France,45.1995626,-0.7484994,12.066666666666668,8.1,17.233333333333334,87.46666666666665,,20.566666666666666,15.433333333333335,26.7,32.833333333333336,,14.5,10.233333333333334,19.866666666666664,54.199999999999996,
Figure Libre Freestyle Rouge 2018,France,Pays d'Oc,Gayda,3.7,107,11.45,2018-01-01,Pays d'Oc,France,43.604764,1.4540399,13.666666666666666,8.566666666666668,19.799999999999997,75.8,,22.46666666666667,17.733333333333334,28.599999999999998,40.9,,13.666666666666666,9.466666666666667,19.099999999999998,26.433333333333334,
Pinot Noir 2018,France,Pays d'Oc,La Forge Estate,3.6,107,7.27,2018-01-01,Pays d'Oc,France,43.604764,1.4540399,13.666666666666666,8.566666666666668,19.799999999999997,75.8,,22.46666666666667,17.733333333333334,28.599999999999998,40.9,,13.666666666666666,9.466666666666667,19.099999999999998,26.433333333333334,
Tinto 2018,Spain,Alicante,Vergel,3.6,107,7.35,2018-01-01,Alicante,Spain,38.3436365,-0.4881708,18.45,,,,,26.03333333333333,,,,,17.0,,,,
Les Coteaux Cabernet Sauvignon 2015,South Africa,Wellington,Mont du Toit,3.8,107,11.5,2015-01-01,Wellington,South Africa,-33.643055,19.010556,17.76666666666667,10.866666666666665,25.0,,,11.2,5.699999999999999,20.65,,,17.0,9.75,,,
Mayro Montepulciano d'Abruzzo 2015,Italy,Montepulciano d'Abruzzo,Fosso Corno,3.7,107,7.75,2015-01-01,Montepulciano d'Abruzzo,Italy,42.1565463,14.6066804,15.566666666666668,12.700000000000001,18.73333333333333,28.333333333333332,13180.0,24.7,21.833333333333332,28.03333333333333,10.333333333333334,17140.0,19.3,16.73333333333333,22.333333333333332,73.66666666666667,10380.0
Barbera d'Alba 2018,Italy,Barbera d'Alba,Comm. G.B. Burlotto,3.9,107,17.0,2018-01-01,Barbera d'Alba,Italy,44.7712158,8.0435811,12.200000000000001,9.166666666666666,17.25,41.13333333333333,,21.866666666666664,18.7,25.3,89.8,,12.933333333333332,10.866666666666667,15.733333333333334,17.099999999999998,
Blauer Spätburgunder 2015,Germany,Baden,Ziereisen,3.7,107,11.31,2015-01-01,Baden,Germany,53.0023496,9.0820955,,,,,,,,,,,,,,,
Promontory 2013,United States,Napa Valley,Promontory,4.7,107,721.34,2013-01-01,Napa Valley,United States,38.8484702,-94.413093,,,,,,,,,,,,,,,
Tempranillo - Merlot 2015,Spain,Ribera del Duero,Rolland & Galarreta 'R&G',3.7,107,13.95,2015-01-01,Ribera del Duero,Spain,41.6657566,-3.6863295,10.0,3.8000000000000003,16.166666666666668,39.0,13540.0,17.833333333333336,10.533333333333333,25.099999999999998,30.333333333333332,18540.0,13.466666666666667,7.933333333333334,19.0,66.0,9960.0
Sankt Laurent 2017,Austria,Burgenland,Umathum,3.6,107,13.2,2017-01-01,Burgenland,Austria,47.5000001,16.4166666,,,,,,21.9,16.7,27.4,,,9.7,6.2,13.7,,
Gigondas 2017,France,Gigondas,M. Chapoutier,3.9,107,24.8,2017-01-01,Gigondas,France,44.1641127,5.0051053,,,,,,24.5,16.8,32.0,,,,,,,
Driopi Classic Agiorgitiko Nemea 2017,Greece,Nemea,Κτημα Τσελεπου (Ktima Tselepos),3.7,107,11.5,2017-01-01,Nemea,Greece,37.8209952,22.6613055,,,,,,,,,,,,,,,
Magna Malbec 2018,Argentina,San Juan,Callia,3.5,107,8.95,2018-01-01,San Juan,Argentina,-30.7054363,-69.1988222,,,,,,,,,,,,,,,
Nero 2010,Italy,Salento,Conti Zecca,4.0,107,25.12,2010-01-01,Salento,Italy,40.248604,15.190058,15.433333333333332,11.8,,,,24.733333333333334,21.4,29.3,1.0,19620.0,17.566666666666666,18.9,26.8,98.0,13440.0
Salice Salentino 2017,Italy,Salice Salentino,Epicuro,3.6,107,6.25,2017-01-01,Salice Salentino,Italy,40.3856618,17.9637483,,,,,,,,,,,,,,,
Valpolicella Superiore 2014,Italy,Valpolicella,Rocca Sveva,3.7,107,15.84,2014-01-01,Valpolicella,Italy,45.5296706,10.9400217,12.766666666666666,,18.6,180.46666666666667,,25.166666666666668,,,31.8,17160.0,15.733333333333333,,,90.7,
Gevrey-Chambertin 2015,France,Gevrey-Chambertin,Chanson,4.1,107,50.9,2015-01-01,Gevrey-Chambertin,France,47.2261857,4.9705666,11.533333333333333,5.833333333333333,17.5,22.333333333333332,13360.0,19.066666666666666,13.733333333333334,24.766666666666666,85.0,13220.0,12.9,8.966666666666667,17.7,90.66666666666667,7940.0
Pago de los Balagueses Garnacha Tintorera - Merlot 2014,Spain,Valencia,Vegalfaro,3.8,107,16.9,2014-01-01,Valencia,Spain,39.4697065,-0.3763353,16.599999999999998,12.266666666666667,20.900000000000002,50.0,,24.5,20.766666666666666,28.2,15.666666666666666,19740.0,20.8,16.53333333333333,25.066666666666666,7.666666666666667,13720.0
Barolo Liste 2013,Italy,Barolo,Borgogno,4.2,107,80.01,2013-01-01,Barolo,Italy,44.6108408,7.9428448,,,,,,,,,,,,,,,
Adrianna Vineyard Fortuna Terrae Malbec 2016,Argentina,Mendoza,Catena Zapata,4.6,107,89.9,2016-01-01,Mendoza,Argentina,-34.787093,-68.4381868,16.766666666666666,7.8,,,,9.433333333333334,0.9,,,,13.566666666666665,4.3,,,
Malbec de Purcari 2018,Moldova,South Eastern,Château Purcari,4.1,107,11.98,2018-01-01,South Eastern,Moldova,47.25,28.58333,,,,,,,,,,,,,,,
Esprit de Granit Saint-Joseph 2012,France,Saint-Joseph,Cave de Tain,4.0,107,27.93,2012-01-01,Saint-Joseph,France,49.5344534,-1.529802,,,,,,,,,,,,,,,
Bachgart Blauburgunder 2016,Italy,Südtirol - Alto Adige,Klaus Lentsch,3.8,107,19.9,2016-01-01,Südtirol - Alto Adige,Italy,46.441472,11.282121,,,,,,,,,,,,,,,
Crianza 2016,Spain,Rioja,Campo Viejo,3.5,1070,7.99,2016-01-01,Rioja,Spain,42.3285528,-2.4674917,13.566666666666668,7.766666666666666,20.133333333333333,30.33333333333333,,22.53333333333333,15.5,30.666666666666668,58.56666666666667,,14.0,9.0,20.0,26.8,
Margaux de Brane (Margaux de Henri Lurton) 2014,France,Margaux,Château Brane-Cantenac,3.8,1070,34.2,2014-01-01,Margaux,France,45.0463335,-0.6729117,11.399999999999999,7.233333333333334,16.400000000000002,72.0,9820.0,20.8,15.666666666666666,26.399999999999995,84.0,16120.0,14.5,11.066666666666668,19.03333333333333,99.33333333333333,7620.0
Shiraz 2017,South Africa,Swartland,Allesverloren,3.6,1070,10.9,2017-01-01,Swartland,South Africa,-33.29356,18.5993825,17.6,10.966666666666667,,,,11.799999999999999,5.433333333333333,21.2,,,20.1,12.0,,,
Rubesco Rosso di Torgiano 2016,Italy,Torgiano,Lungarotti,3.7,1071,9.8,2016-01-01,Torgiano,Italy,43.028542,12.44136,,,,,,,,,,,,,,,
Yamhill Cuvée Pinot Noir 2014,United States,Willamette Valley,Domaine Serene,4.3,1071,59.0,2014-01-01,Willamette Valley,United States,44.9086731,-123.0022929,11.200000000000001,5.533333333333334,17.2,64.0,,20.133333333333333,12.633333333333335,27.733333333333334,11.666666666666666,,12.433333333333335,6.8,17.5,87.66666666666667,
Gran Enemigo 2015,Argentina,Mendoza,El Enemigo,4.5,1072,62.39,2015-01-01,Mendoza,Argentina,-34.787093,-68.4381868,14.1,8.433333333333332,21.566666666666666,17.666666666666668,11740.0,8.6,2.0,17.96666666666667,9.666666666666666,13060.0,17.066666666666666,8.833333333333334,25.166666666666668,16.666666666666668,14040.0
Macán Clásico 2015,Spain,Rioja,Benjamin de Rothschild - Vega Sicilia,4.3,1073,48.54,2015-01-01,Rioja,Spain,42.3285528,-2.4674917,13.6,7.2,20.0,34.0,13800.0,21.7,14.633333333333333,28.76666666666667,34.333333333333336,17480.0,16.599999999999998,10.700000000000001,22.53333333333333,46.0,10920.0
Zinfandel 2016,United States,North Coast,Ghost Pines,3.9,1075,17.29,2016-01-01,North Coast,United States,41.506534,-81.6939953,,,,,,,,,,,,,,,
Reserve Malbec 2016,Argentina,Tupungato,Sophenia,3.8,1076,13.09,2016-01-01,Tupungato,Argentina,-33.3723648,-69.1479533,,,,,,,,,,,,,,,
Saint-Estèphe 2011,France,Saint-Estèphe,Château de Pez,3.9,1077,36.9,2011-01-01,Saint-Estèphe,France,45.5925,0.6633333,,,,,,,,,,,,,,,
Rosso di Montalcino Leopoldo Franceschi 2014,Italy,Rosso di Montalcino,Tenuta Il Poggione,3.9,1077,21.34,2014-01-01,Rosso di Montalcino,Italy,43.055612,11.3592953,,,,,,,,,,,,,,,
Saint-Estèphe (Grand Cru Classé) 2005,France,Saint-Estèphe,Château Lafon-Rochet,4.1,1077,79.95,2005-01-01,Saint-Estèphe,France,45.5925,0.6633333,,,,,,,,,,,,,,,
Diamond Collection Zinfandel (Red Label) 2016,United States,Napa Valley,Francis Ford Coppola,3.9,1078,21.39,2016-01-01,Napa Valley,United States,38.8484702,-94.413093,,,,,,,,,,,,,,,
Nèprica Cabernet Sauvignon 2018,Italy,Puglia,Tormaresca,3.5,108,8.33,2018-01-01,Puglia,Italy,40.9842539,16.6210027,16.049999999999997,11.2,20.25,,,25.75,20.2,30.4,,,,,,,
Veneto Rosso del Bepi 2010,Italy,Veneto,Quintarelli Giuseppe,4.4,108,115.92,2010-01-01,Veneto,Italy,45.6476663,11.8665254,15.1,9.9,20.633333333333336,98.66666666666667,,24.73333333333333,19.433333333333334,30.53333333333333,52.0,,15.566666666666668,11.833333333333334,20.400000000000002,111.33333333333333,
Taurasi 2015,Italy,Taurasi,Feudi di San Gregorio,4.1,108,17.45,2015-01-01,Taurasi,Italy,41.0083503,14.9574387,,,,,,,,,,,,,,,
Tributo Carmenère 2018,Chile,Colchagua Valley,Caliterra,3.7,108,9.64,2018-01-01,Colchagua Valley,Chile,-30.0,-71.0,15.4,13.9,,0.0,,11.833333333333334,7.9,,3.05,,13.299999999999999,,,1.7999999999999998,
Lalande-de-Pomerol 2014,France,Lalande-de-Pomerol,Château Les Hauts-Conseillants,4.0,108,20.37,2014-01-01,Lalande-de-Pomerol,France,44.9560756,-0.2104434,11.399999999999999,7.233333333333334,16.400000000000002,72.0,9820.0,20.8,15.666666666666666,26.399999999999995,84.0,16120.0,14.5,11.066666666666668,19.03333333333333,99.33333333333333,7620.0
Coteaux Du Languedoc La Clape L'Hospitalitas 2015,France,La Clape,Gérard Bertrand,4.4,108,71.39,2015-01-01,La Clape,France,42.9675839,2.5482974,,,,,,,,,,,,,,,
Shiraz 2015,South Africa,Stellenbosch,Kaapzicht,4.0,108,15.55,2015-01-01,Stellenbosch,South Africa,-33.934444,18.869167,18.033333333333335,12.799999999999999,23.233333333333334,40.0,14380.0,13.166666666666666,8.233333333333333,18.166666666666668,101.66666666666667,10820.0,17.666666666666668,12.066666666666668,23.266666666666666,17.666666666666668,17700.0
Gigondas Valbelle 2015,France,Gigondas,Château de Saint Cosme,4.3,108,49.95,2015-01-01,Gigondas,France,44.1641127,5.0051053,,,,,,,,,,,,,,,
Primitivo di Manduria 2018,Italy,Primitivo di Manduria,Terre di Campo Sasso,4.1,108,8.28,2018-01-01,Primitivo di Manduria,Italy,40.4002788,17.6374622,,,,,,,,,,,,,,,
Redhill Pinotage 2017,South Africa,Stellenbosch,Simonsig,4.2,108,19.4,2017-01-01,Stellenbosch,South Africa,-33.934444,18.869167,17.5,14.1,24.15,,,13.200000000000001,8.200000000000001,18.75,,,17.03333333333333,12.233333333333334,22.433333333333337,,
Finca Dofí 2017,Spain,Priorat,Álvaro Palacios,4.4,108,69.95,2017-01-01,Priorat,Spain,41.2137983,0.8116236,15.200000000000001,9.6,21.3,46.833333333333336,,24.600000000000005,18.8,29.4,12.866666666666669,,18.166666666666668,13.766666666666666,23.766666666666666,48.300000000000004,
Unique Selection 2015,Chile,Colchagua Valley,Siegel,4.2,108,28.9,2015-01-01,Colchagua Valley,Chile,-30.0,-71.0,13.233333333333334,10.433333333333332,17.500000000000004,0.3333333333333333,10300.0,10.966666666666669,8.033333333333333,15.566666666666668,21.333333333333332,10040.0,13.133333333333335,10.166666666666666,17.500000000000004,5.666666666666667,11320.0
Sud Malvasia Nera 2016,Italy,Salento,San Marzano,3.9,108,7.25,2016-01-01,Salento,Italy,40.248604,15.190058,15.366666666666667,11.5,19.566666666666666,,,25.066666666666663,,30.700000000000003,,,19.266666666666666,,28.2,,
Alboreto Nobile di Montepulciano 2016,Italy,Vino Nobile di Montepulciano,Talosa,3.9,108,14.13,2016-01-01,Vino Nobile di Montepulciano,Italy,43.0716467,11.8054771,,,,,,,,,,,,,,,
Tempranillo Reserva 2010,Spain,Rioja,Bodegas Amaren,4.2,108,34.9,2010-01-01,Rioja,Spain,42.3285528,-2.4674917,13.366666666666667,6.866666666666667,19.900000000000002,34.0,14580.0,23.2,15.6,30.76666666666667,11.833333333333334,19460.0,15.533333333333337,9.866666666666667,21.166666666666668,37.666666666666664,11300.0
Bordeaux Supérieur 2017,France,Bordeaux Supérieur,Château Picon,3.5,108,7.35,2017-01-01,Bordeaux Supérieur,France,44.884045,-0.562129,12.066666666666668,8.1,17.233333333333334,87.46666666666665,,20.566666666666666,15.433333333333335,26.7,32.833333333333336,,14.5,10.233333333333334,19.866666666666664,54.199999999999996,
Valpolicella Valpantena 2017,Italy,Valpolicella Valpantena,Costa Arente,3.8,108,15.67,2017-01-01,Valpolicella Valpantena,Italy,45.53333,11.0,13.6,8.6,20.0,,,23.400000000000002,19.6,30.6,,,14.299999999999999,10.033333333333333,19.0,,
Poggio Al Tufo Alicante 2015,Italy,Maremma Toscana,Tommasi,3.9,108,20.32,2015-01-01,Maremma Toscana,Italy,42.7027722,11.1367433,14.066666666666668,8.200000000000001,20.133333333333336,45.666666666666664,,23.400000000000002,17.03333333333333,29.233333333333334,271.0,,18.233333333333334,13.933333333333332,23.399999999999995,152.0,
Conde de Valdemar Reserva 2012,Spain,Rioja,Bodegas Valdemar,4.0,108,13.26,2012-01-01,Rioja,Spain,42.3285528,-2.4674917,14.4,8.366666666666667,20.366666666666667,29.333333333333332,13400.0,21.766666666666666,14.633333333333333,28.900000000000002,30.333333333333332,17840.0,16.133333333333333,9.966666666666667,22.3,25.666666666666668,12260.0
Rondeur Appassimento 2018,France,Pays d'Oc,Domaine La Grange,4.2,108,9.37,2018-01-01,Pays d'Oc,France,43.604764,1.4540399,13.666666666666666,8.566666666666668,19.799999999999997,75.8,,22.46666666666667,17.733333333333334,28.599999999999998,40.9,,13.666666666666666,9.466666666666667,19.099999999999998,26.433333333333334,
Zarihs Syrah 2016,Spain,Campo de Borja,Borsao,4.1,108,15.69,2016-01-01,Campo de Borja,Spain,41.7865415,-1.5058323,,,,,,,,,,,,,,,
Merlot Selección 2016,Spain,Extremadura,Coloma,4.0,108,11.95,2016-01-01,Extremadura,Spain,39.1748426,-6.1529891,16.099999999999998,,23.4,14.3,,26.53333333333333,17.8,32.5,1.9666666666666666,,16.8,,,52.06666666666666,
Tinto 2000,Spain,Castilla y León,Dehesa La Granja,4.1,108,35.0,2000-01-01,Castilla y León,Spain,41.55005,-5.1387401,10.433333333333334,3.6666666666666665,17.166666666666668,28.0,14420.0,19.599999999999998,11.233333333333334,27.866666666666664,23.0,20880.0,11.066666666666668,6.1000000000000005,16.0,57.333333333333336,10410.0
Siebeneich Merlot Riserva 2016,Italy,Südtirol - Alto Adige,Colterenzio (Schreckbichl),3.8,108,19.01,2016-01-01,Südtirol - Alto Adige,Italy,46.441472,11.282121,,,,,,,,,,,,,,,
Cabernet Sauvignon 2017,South Africa,Stellenbosch,Stark-Condé,3.8,108,11.99,2017-01-01,Stellenbosch,South Africa,-33.934444,18.869167,17.5,14.1,24.15,,,13.200000000000001,8.200000000000001,18.75,,,17.03333333333333,12.233333333333334,22.433333333333337,,
Amarone 2012,Italy,Amarone della Valpolicella,Musella,4.2,108,29.12,2012-01-01,Amarone della Valpolicella,Italy,42.83333,12.83333,,,,,,,,,,,,,,,
Reserva 2012,Spain,Rioja,Ortega Ezquerro,3.9,108,13.95,2012-01-01,Rioja,Spain,42.3285528,-2.4674917,14.4,8.366666666666667,20.366666666666667,29.333333333333332,13400.0,21.766666666666666,14.633333333333333,28.900000000000002,30.333333333333332,17840.0,16.133333333333333,9.966666666666667,22.3,25.666666666666668,12260.0
Palha Canas Tinto 2016,Portugal,Lisboa,Casa Santos Lima,3.6,108,8.9,2016-01-01,Lisboa,Portugal,38.7077507,-9.1365919,16.866666666666667,13.166666666666666,21.599999999999998,33.0,,22.566666666666666,18.133333333333336,28.03333333333333,5.2,,18.23333333333333,15.166666666666666,22.266666666666666,57.13333333333333,
12 e Mezzo Primitivo del Salento 2017,Italy,Salento,Varvaglione,3.9,1080,7.25,2017-01-01,Salento,Italy,40.248604,15.190058,15.266666666666666,,20.8,,,24.099999999999998,,29.6,,,19.0,,26.8,,
50 & 50 2013,Italy,Toscana,Capannelle,4.4,1081,112.0,2013-01-01,Toscana,Italy,43.4586541,11.1389204,,,,,,,,,,,,,,,
Cabernet Sauvignon de Purcari 2017,Moldova,South Eastern,Château Purcari,4.1,1082,12.98,2017-01-01,South Eastern,Moldova,47.25,28.58333,,,,,,,,,,,,,,,
Ca'Marcanda Promis Toscana 2017,Italy,Toscana,Gaja,4.0,1083,30.9,2017-01-01,Toscana,Italy,43.4586541,11.1389204,,,,,,,,,,,,,,,
Cabernet Sauvignon - Merlot 2015,Spain,Somontano,Enate,3.6,1084,9.5,2015-01-01,Somontano,Spain,42.0883878,0.0994041,,,,,,,,,,,,,,,
Conde de Valdemar Gran Reserva 2008,Spain,Rioja,Bodegas Valdemar,4.0,1084,19.99,2008-01-01,Rioja,Spain,42.3285528,-2.4674917,13.299999999999999,7.5,19.099999999999998,74.0,11920.0,21.166666666666668,13.966666666666667,28.366666666666664,33.0,17500.0,14.300000000000002,8.366666666666667,20.166666666666668,13.666666666666666,12200.0
Whole Berry Cabernet Sauvignon 2017,South Africa,Robertson,Springfield Estate,4.1,1084,16.75,2017-01-01,Robertson,South Africa,-33.802222,19.883611,19.200000000000003,,,,,12.766666666666666,6.266666666666667,21.1,,,17.499999999999996,10.733333333333334,27.46666666666667,,
Clásico Garnacha 2018,Spain,Campo de Borja,Borsao,3.6,1085,5.99,2018-01-01,Campo de Borja,Spain,41.7865415,-1.5058323,,,,,,,,,,,,,,,
Sideral 2017,Chile,Cachapoal Valley,Altaïr,4.2,1085,21.45,2017-01-01,Cachapoal Valley,Chile,-30.0,-71.0,15.700000000000001,13.600000000000001,,5.1,,12.066666666666668,8.3,,,,14.1,,,,
Charles Wetmore Cabernet Sauvignon 2014,United States,Livermore Valley,Wente,4.0,1086,21.1,2014-01-01,Livermore Valley,United States,36.009638,-115.2831998,21.599999999999998,15.4,27.866666666666664,1.6666666666666667,,33.13333333333333,26.900000000000002,39.4,5.0,,20.233333333333334,14.533333333333333,25.933333333333337,14.666666666666666,
Saint-Estèphe 2012,France,Saint-Estèphe,Château de Pez,4.0,1089,33.9,2012-01-01,Saint-Estèphe,France,45.5925,0.6633333,,,,,,,,,,,,,,,
Gran Reserva Cabernet Sauvignon 2017,Chile,Maipo Valley,Carmen,3.8,1089,11.65,2017-01-01,Maipo Valley,Chile,-30.0,-71.0,15.700000000000001,13.600000000000001,,5.1,,12.066666666666668,8.3,,,,14.1,,,,
Mentor Cabernet 2013,Australia,Barossa,Peter Lehmann,3.9,109,32.69,2013-01-01,Barossa,Australia,-34.6134149,138.9385455,,10.533333333333333,18.65,47.4,,,5.599999999999999,11.1,74.9,,,8.866666666666667,17.55,28.5,
Montagne-Saint-Émilion 2016,France,Montagne-Saint-Émilion,Clos de Bouard,4.0,109,27.2,2016-01-01,Montagne-Saint-Émilion,France,44.9239804,-0.1798164,13.233333333333334,8.933333333333332,18.599999999999998,33.53333333333333,,21.233333333333334,16.0,28.100000000000005,56.26666666666667,,13.9,10.166666666666666,19.266666666666666,46.333333333333336,
Les Cépages Cabernet Sauvignon 2018,France,Pays d'Oc,Baron Philippe de Rothschild,3.4,109,7.27,2018-01-01,Pays d'Oc,France,43.604764,1.4540399,13.666666666666666,8.566666666666668,19.799999999999997,75.8,,22.46666666666667,17.733333333333334,28.599999999999998,40.9,,13.666666666666666,9.466666666666667,19.099999999999998,26.433333333333334,
L'Esprit Terroir La Clape 2015,France,La Clape,Château Rouquette Sur Mer,3.8,109,14.95,2015-01-01,La Clape,France,42.9675839,2.5482974,,,,,,,,,,,,,,,
Saint-Émilion Grand Cru (Premier Grand Cru Classé) 2015,France,Saint-Émilion Grand Cru,Château Belair-Monange,4.3,109,224.95,2015-01-01,Saint-Émilion Grand Cru,France,44.847147,-0.547337,13.066666666666668,8.433333333333334,18.400000000000002,80.66666666666667,11840.0,20.3,15.6,25.700000000000003,66.0,14940.0,16.5,12.299999999999999,22.03333333333333,64.33333333333333,10860.0
Pinot Noir 2017,United States,Central Coast,Ryder Estate,3.7,109,16.72,2017-01-01,Central Coast,United States,44.4190178,-124.0763817,,,,,,,,,,,,,,,
Malbec 2018,France,Comté Tolosan,Carmelle,3.7,109,6.45,2018-01-01,Comté Tolosan,France,43.105511,5.844843,14.933333333333332,9.7,19.599999999999998,53.1,,23.96666666666667,19.85,28.75,1.1,,16.066666666666666,15.2,19.9,26.25,
Merlot 2015,United States,Washington,Stimson Estate Cellars,3.6,109,8.29,2015-01-01,Washington,United States,38.8950368,-77.0365427,13.5,8.166666666666666,18.766666666666666,132.66666666666666,,25.600000000000005,21.0,30.233333333333334,96.33333333333333,,16.466666666666665,11.933333333333332,20.900000000000002,61.333333333333336,
Blaufränkisch 2017,Austria,Burgenland,Krutzler,3.5,109,8.98,2017-01-01,Burgenland,Austria,47.5000001,16.4166666,,,,,,21.9,16.7,27.4,,,9.7,6.2,13.7,,
I Sodi del Paretaio 2018,Italy,Chianti,Badia di Morrona,3.5,109,7.99,2018-01-01,Chianti,Italy,43.5824597,11.3168731,18.7,12.5,24.8,,,25.76666666666667,18.233333333333334,33.03333333333333,,,15.3,9.2,22.8,,
Villa Blanche Syrah 2017,France,Pays d'Oc,Calmel & Joseph,3.8,109,7.4,2017-01-01,Pays d'Oc,France,43.604764,1.4540399,12.233333333333334,8.266666666666667,17.3,59.300000000000004,,21.366666666666664,16.133333333333333,27.400000000000002,47.46666666666667,,15.333333333333334,11.133333333333333,20.4,36.93333333333333,
Arbossar 2016,Spain,Priorat,Terroir Al Límit Soc. Lda,4.0,109,60.0,2016-01-01,Priorat,Spain,41.2137983,0.8116236,16.96666666666667,9.6,21.900000000000002,17.833333333333332,,25.933333333333334,20.066666666666666,30.733333333333334,24.366666666666664,,17.599999999999998,12.200000000000001,23.53333333333333,60.73333333333334,
Amarone Della Valpolicella Marta Galli 2007,Italy,Amarone della Valpolicella,Le Ragose,4.3,109,59.9,2007-01-01,Amarone della Valpolicella,Italy,42.83333,12.83333,,,,,,,,,,,,,,,
Vera Cruz Shiraz 2014,South Africa,Stellenbosch,Delheim,4.3,109,35.5,2014-01-01,Stellenbosch,South Africa,-33.934444,18.869167,17.9,12.333333333333334,23.5,34.333333333333336,14940.0,13.0,8.166666666666666,17.766666666666666,108.66666666666667,11580.0,16.3,11.866666666666667,20.700000000000003,56.333333333333336,16500.0
Poggio d'Arna Toscana 2016,Italy,Toscana,Tenuta di Sesta,4.0,109,12.58,2016-01-01,Toscana,Italy,43.4586541,11.1389204,,,,,,,,,,,,,,,
Contador Rioja 2014,Spain,Rioja,Bodega Contador (Benjamín Romeo),4.6,109,328.95,2014-01-01,Rioja,Spain,42.3285528,-2.4674917,11.266666666666666,5.8999999999999995,16.666666666666668,67.33333333333333,10520.0,21.566666666666666,14.6,28.5,31.333333333333332,18660.0,14.899999999999999,9.366666666666667,20.400000000000002,32.333333333333336,10540.0
Fronsac 2015,France,Fronsac,Château Moulin Haut-Laroque,4.0,109,22.37,2015-01-01,Fronsac,France,42.9509183,0.6487221,11.566666666666668,5.966666666666666,17.76666666666667,110.33333333333333,11280.0,18.766666666666666,13.799999999999999,24.366666666666664,96.66666666666667,11600.0,14.533333333333331,8.566666666666666,21.733333333333334,43.666666666666664,11360.0
Pinot Noir *** 2014,Germany,Baden,Weingut Holger Koch,3.6,109,29.95,2014-01-01,Baden,Germany,53.0023496,9.0820955,,,,,,,,,,,,,,,
Lemberger Trocken 2014,Germany,Württemberg,Grafen Neipperg,3.2,109,9.6,2014-01-01,Württemberg,Germany,48.3366504,9.0994058,,,,,,,,,,,,,,,
Sestal 2014,Spain,Mallorca,Ses Talaioles,4.2,109,31.68,2014-01-01,Mallorca,Spain,39.613432,2.8829185,14.6,9.166666666666666,20.1,28.666666666666668,14400.0,24.2,17.966666666666665,30.46666666666667,10.833333333333334,20620.0,19.099999999999998,13.733333333333334,24.5,70.33333333333333,11040.0
Pomerol 2012,France,Pomerol,Château Gombaude-Guillot,4.1,109,68.81,2012-01-01,Pomerol,France,44.9311234,-0.1999904,15.133333333333333,9.566666666666668,21.166666666666668,17.666666666666668,15120.0,19.933333333333334,14.9,25.666666666666668,56.666666666666664,13020.0,15.600000000000001,11.5,21.033333333333335,33.666666666666664,10580.0
Priorat Cruor 2016,Spain,Priorat,Casa Gran del Siurana,4.1,109,20.99,2016-01-01,Priorat,Spain,41.2137983,0.8116236,16.96666666666667,9.6,21.900000000000002,17.833333333333332,,25.933333333333334,20.066666666666666,30.733333333333334,24.366666666666664,,17.599999999999998,12.200000000000001,23.53333333333333,60.73333333333334,
Domaine de la Madone Beaujolais Le Perréon 2018,France,Beaujolais,Jean-Marc Despres,3.7,109,8.67,2018-01-01,Beaujolais,France,46.1186123,4.6156707,,,,,,,,,,,13.1,8.4,18.7,,
Saint-Estèphe 2016,France,Saint-Estèphe,Château Clauzet,3.8,109,24.75,2016-01-01,Saint-Estèphe,France,45.5925,0.6633333,,,,,,,,,,,,,,,
Valpolicella Superiore 2014,Italy,Valpolicella,Allegrini,3.7,1092,13.16,2014-01-01,Valpolicella,Italy,45.5296706,10.9400217,12.766666666666666,,18.6,180.46666666666667,,25.166666666666668,,,31.8,17160.0,15.733333333333333,,,90.7,
The Scribbler Cabernet - Shiraz 2013,Australia,Barossa Valley,Yalumba,3.6,1093,20.76,2013-01-01,Barossa Valley,Australia,-34.5817132,138.9987872,15.1,8.266666666666667,21.96666666666667,28.333333333333332,13820.0,9.299999999999999,5.0,13.566666666666668,43.0,9980.0,15.733333333333334,8.5,22.933333333333334,19.666666666666668,16980.0
Boom Boom! Syrah 2016,United States,Columbia Valley,Charles Smith,3.5,1093,18.42,2016-01-01,Columbia Valley,United States,46.1576117,-122.9748352,,,,,,,,,,,,,,,
Margaux (Grand Cru Classé) 2010,France,Margaux,Château Prieuré-Lichine,4.2,1094,79.0,2010-01-01,Margaux,France,45.0463335,-0.6729117,12.866666666666667,8.200000000000001,18.3,75.0,12320.0,21.066666666666666,15.699999999999998,27.066666666666666,48.666666666666664,16540.0,15.100000000000001,11.033333333333333,20.36666666666667,95.66666666666667,10040.0
Crianza Tempranillo 2016,Spain,Rioja,Baigorri,3.8,1097,12.6,2016-01-01,Rioja,Spain,42.3285528,-2.4674917,13.566666666666668,7.766666666666666,20.133333333333333,30.33333333333333,,22.53333333333333,15.5,30.666666666666668,58.56666666666667,,14.0,9.0,20.0,26.8,
Berola 2014,Spain,Campo de Borja,Borsao,3.9,1098,14.5,2014-01-01,Campo de Borja,Spain,41.7865415,-1.5058323,,,,,,,,,,,,,,,
Blaufränkisch 2017,Austria,Burgenland,Rosi Schuster,3.7,110,14.9,2017-01-01,Burgenland,Austria,47.5000001,16.4166666,,,,,,21.9,16.7,27.4,,,9.7,6.2,13.7,,
Spätburgunder 2017,Germany,Ahr,Jean Stodden,3.5,110,12.4,2017-01-01,Ahr,Germany,50.4728741,6.9477258,,,,,,,,,,,,,,,
Brunello di Montalcino Riserva 2011,Italy,Brunello di Montalcino,Biondi-Santi,4.5,110,447.43,2011-01-01,Brunello di Montalcino,Italy,43.3204995,11.3281859,,,,,,,,,,,,,,,
Cabernet Sauvignon 2015,Argentina,Uco Valley,DiamAndes,3.8,110,16.99,2015-01-01,Uco Valley,Argentina,-34.0,-64.0,15.933333333333332,10.933333333333335,22.599999999999998,118.0,11720.0,10.5,4.533333333333332,18.633333333333333,4.0,11720.0,18.099999999999998,11.466666666666667,25.733333333333334,83.33333333333333,14860.0
Italian Collection Tosca 2011,South Africa,Stellenbosch,Morgenster Estate,4.0,110,24.32,2011-01-01,Stellenbosch,South Africa,-33.934444,18.869167,18.0,12.733333333333334,23.2,38.0,14840.0,12.899999999999999,7.033333333333334,18.7,47.333333333333336,12540.0,16.53333333333333,11.266666666666666,21.8,27.666666666666668,16200.0
Cabernet Sauvignon 2016,South Africa,Stellenbosch,Meerlust,4.1,110,21.34,2016-01-01,Stellenbosch,South Africa,-33.934444,18.869167,18.15,15.5,24.15,,,12.566666666666668,7.55,17.8,,,17.1,13.0,24.5,,
Saint-Émilion Grand Cru (Grand Cru Classé) 2005,France,Saint-Émilion Grand Cru,Clos des Jacobins,4.2,110,58.95,2005-01-01,Saint-Émilion Grand Cru,France,44.847147,-0.547337,11.966666666666667,7.433333333333334,17.0,58.666666666666664,11780.0,20.766666666666666,15.700000000000001,26.333333333333332,45.333333333333336,15520.0,14.199999999999998,10.433333333333332,19.0,53.0,8700.0
Nero d'Avola 2018,Italy,Terre Siciliane,Fatascia,3.6,110,7.53,2018-01-01,Terre Siciliane,Italy,42.83333,12.83333,,,,,,,,,,,,,,,
Givry 2017,France,Givry,Joseph Drouhin,3.9,110,19.4,2017-01-01,Givry,France,46.7831191,4.7432564,,,,,,,,,,,,,,,
Bordeaux Réserve Rouge 2015,France,Bordeaux,Château Rauzan Despagne,3.4,110,18.9,2015-01-01,Bordeaux,France,44.841225,-0.5800364,13.066666666666668,8.433333333333334,18.400000000000002,80.66666666666667,11840.0,20.3,15.6,25.700000000000003,66.0,14940.0,16.5,12.299999999999999,22.03333333333333,64.33333333333333,10860.0
Bricco Dei Merli Barbera d'Alba 2014,Italy,Barbera d'Alba,Elvio Cogno,3.6,110,19.95,2014-01-01,Barbera d'Alba,Italy,44.7712158,8.0435811,8.733333333333334,5.866666666666667,12.333333333333334,141.33333333333334,8260.0,20.933333333333334,17.133333333333333,24.633333333333336,94.33333333333333,14980.0,12.299999999999999,9.966666666666667,15.033333333333333,64.0,6980.0
Bandol Rouge 2007,France,Bandol,Gros' Noré,3.9,110,59.0,2007-01-01,Bandol,France,43.1357717,5.7523647,,,,,,,,,,,,,,,
Teldeschi Vineyard Zinfandel 2016,United States,Dry Creek Valley,Ravenswood,4.0,110,33.95,2016-01-01,Dry Creek Valley,United States,39.9545792,-119.9544961,,,,,,,,,,,,,,,
Ornato Barolo 2015,Italy,Barolo,Pio Cesare,4.2,110,81.97,2015-01-01,Barolo,Italy,44.6108408,7.9428448,,,,,,,,,,,,,,,
Colledilà Chianti Classico Gran Selezione 2016,Italy,Chianti Classico,Ricasoli,4.2,110,45.0,2016-01-01,Chianti Classico,Italy,43.3930219,11.3088538,,,,,,,,,,,,,,,
Pomerol 2013,France,Pomerol,Château La Grave (Trigant de Boisset),3.8,110,31.2,2013-01-01,Pomerol,France,44.9311234,-0.1999904,13.0,7.966666666666666,18.566666666666666,79.33333333333333,12680.0,20.533333333333335,15.5,26.233333333333334,43.666666666666664,14380.0,14.366666666666667,10.499999999999998,19.400000000000002,83.0,9300.0
1921 Primitivo di Manduria Riserva 2012,Italy,Primitivo di Manduria,Varvaglione,4.1,110,39.9,2012-01-01,Primitivo di Manduria,Italy,40.4002788,17.6374622,,,,,,,,,,,,,,,
Martelo Reserva 2012,Spain,Rioja,Torre de Oña,4.0,110,28.41,2012-01-01,Rioja,Spain,42.3285528,-2.4674917,14.4,8.366666666666667,20.366666666666667,29.333333333333332,13400.0,21.766666666666666,14.633333333333333,28.900000000000002,30.333333333333332,17840.0,16.133333333333333,9.966666666666667,22.3,25.666666666666668,12260.0
Rosso di Montepulciano Prugnolo 2017,Italy,Rosso di Montepulciano,Boscarelli,3.7,110,12.9,2017-01-01,Rosso di Montepulciano,Italy,43.0921014,11.7818472,,,,,,,,,,,,,,,
Valley Oaks Cabernet Sauvignon 2016,United States,California,Fetzer,3.6,1102,11.19,2016-01-01,California,United States,36.7014631,-118.755997,,,,,,,,,,,,,,,
Saint-Julien (Grand Cru Classé) 2005,France,Saint-Julien,Château Branaire-Ducru,4.2,1103,88.95,2005-01-01,Saint-Julien,France,47.4019947,5.1364639,9.766666666666666,4.766666666666667,15.166666666666666,41.0,11660.0,18.966666666666665,13.700000000000001,24.766666666666666,79.33333333333333,13240.0,11.866666666666665,8.133333333333333,16.133333333333336,79.33333333333333,7500.0
The Pundit 2016,United States,Columbia Valley,Tenet Wines,3.9,1104,27.99,2016-01-01,Columbia Valley,United States,46.1576117,-122.9748352,,,,,,,,,,,,,,,
Pinot Noir 2016,United States,Los Carneros,Black Stallion,3.9,1105,34.32,2016-01-01,Los Carneros,United States,34.4403502,-119.8493992,15.5,9.9,21.600000000000005,6.8,,19.8,15.366666666666667,24.73333333333333,2.6333333333333333,,19.066666666666666,12.333333333333334,25.933333333333334,6.366666666666667,
Don Maximiano Founder's Reserve 2015,Chile,Aconcagua Valley,Errazuriz,4.4,1106,83.6,2015-01-01,Aconcagua Valley,Chile,-30.0,-71.0,13.233333333333334,10.433333333333332,17.500000000000004,0.3333333333333333,10300.0,10.966666666666669,8.033333333333333,15.566666666666668,21.333333333333332,10040.0,13.133333333333335,10.166666666666666,17.500000000000004,5.666666666666667,11320.0
Marne 180 Amarone della Valpolicella 2015,Italy,Amarone della Valpolicella,Tedeschi,4.3,1106,31.9,2015-01-01,Amarone della Valpolicella,Italy,42.83333,12.83333,,,,,,,,,,,,,,,
Chronicon Montepulciano d'Abruzzo 2013,Italy,Montepulciano d'Abruzzo,Cantina Zaccagnini,3.9,1106,11.95,2013-01-01,Montepulciano d'Abruzzo,Italy,42.1565463,14.6066804,15.933333333333332,12.966666666666669,19.366666666666664,15.666666666666666,14460.0,27.333333333333332,24.266666666666666,30.666666666666668,13.833333333333334,19640.0,19.533333333333335,16.96666666666667,22.7,44.333333333333336,9980.0
Emilien 2015,France,Côtes de Bordeaux,Château le Puy,4.0,1106,39.9,2015-01-01,Côtes de Bordeaux,France,44.6044102,-0.1818567,,,,,,,,,,,,,,,
Pinot Nero 2016,Italy,Südtirol - Alto Adige,Castel Sallegg,3.6,111,11.5,2016-01-01,Südtirol - Alto Adige,Italy,46.441472,11.282121,,,,,,,,,,,,,,,
Single Estate Red 2015,Portugal,Alentejano,Azamor,3.9,111,9.65,2015-01-01,Alentejano,Portugal,38.8421261,-7.5871012,,,,,,,,,,,,,,,
Pinot Noir 2018,Austria,Neusiedlersee,Pittnauer,3.8,111,11.95,2018-01-01,Neusiedlersee,Austria,47.8030761,16.6469854,,,,,,,,,,,,,,,
Fronsac 2013,France,Fronsac,Château Moulin Haut-Laroque,3.8,111,17.5,2013-01-01,Fronsac,France,42.9509183,0.6487221,11.533333333333333,5.8,17.566666666666666,64.0,11580.0,19.466666666666665,13.699999999999998,25.7,56.666666666666664,13120.0,12.766666666666666,7.633333333333333,18.96666666666667,83.0,8580.0
Pinot Noir 2018,Germany,Pfalz,Matthias Gaul,3.7,111,9.9,2018-01-01,Pfalz,Germany,53.8156324,13.3702287,,,,,,,,,,,,,,,
Vürsù Barbaresco Gallina 2014,Italy,Barbaresco,La Spinetta,4.3,111,115.7,2014-01-01,Barbaresco,Italy,44.7254469,8.0806959,,,,,,,,,,,,,,,
Montesodi Toscana 2016,Italy,Toscana,Castello Nipozzano,4.2,111,44.57,2016-01-01,Toscana,Italy,43.4586541,11.1389204,,,,,,,,,,,,,,,
Colle Ambro Rosso Piceno 2017,Italy,Rosso Piceno,Garofoli,3.5,111,7.9,2017-01-01,Rosso Piceno,Italy,42.9446956,13.8100261,,,,,,,,,,,,,,,
AN/2 2018,Spain,Mallorca,Ànima Negra,4.1,111,19.99,2018-01-01,Mallorca,Spain,39.613432,2.8829185,15.733333333333334,12.800000000000002,21.366666666666664,19.066666666666666,,25.933333333333334,22.566666666666666,30.566666666666663,18.400000000000002,,17.599999999999998,15.666666666666666,23.933333333333334,56.73333333333333,
Oraison Côtes du Rhône 2016,France,Côtes-du-Rhône,Badet Clement,3.4,111,8.5,2016-01-01,Côtes-du-Rhône,France,44.7667285,4.8528701,,,,,,,,,,,,,,,
Etna San Lorenzo Rosso 2017,Italy,Etna,Tenuta delle Terre Nere,4.2,111,39.9,2017-01-01,Etna,Italy,37.7510251,14.9940321,17.7,12.4,22.5,,,24.066666666666666,18.433333333333334,28.73333333333333,,,19.333333333333332,15.1,23.599999999999998,,
Negroamaro 2017,Italy,Puglia,A Mano,3.5,111,6.75,2017-01-01,Puglia,Italy,40.9842539,16.6210027,,,,,,26.0,20.7,30.5,,,17.033333333333335,13.266666666666666,21.099999999999998,,
Breg Rosso 2004,Italy,Venezia Giulia,Gravner,4.2,111,95.55,2004-01-01,Venezia Giulia,Italy,45.6528943,13.7804956,,,,,,,,,,,,,,,
Gigondas Le Claux 2011,France,Gigondas,Château de Saint Cosme,4.3,111,59.95,2011-01-01,Gigondas,France,44.1641127,5.0051053,,,,,,,,,,,,,,,
Côtes du Rhône Villages Sablet 2012,France,Côtes-du-Rhône-Villages 'Sablet',Château du Trignon,3.8,111,10.67,2012-01-01,Côtes-du-Rhône-Villages 'Sablet',France,44.192483,5.005664,,,,,,22.2,15.2,28.8,,,10.8,6.5,16.9,,
Paleo 2016,Italy,Toscana,Le Macchiole,4.5,111,92.05,2016-01-01,Toscana,Italy,43.4586541,11.1389204,,,,,,,,,,,,,,,
Dominio de Fontana Garnacha - Syrah 2017,Spain,Uclés,Bodegas Fontana,3.6,111,7.36,2017-01-01,Uclés,Spain,39.9804328,-2.8615799,10.799999999999999,5.033333333333332,16.933333333333334,58.333333333333336,,24.066666666666663,16.133333333333333,31.833333333333332,8.466666666666667,,14.533333333333333,8.666666666666666,21.3,52.333333333333336,
Rosso di Montalcino 2017,Italy,Rosso di Montalcino,Casanova di Neri,4.0,111,20.9,2017-01-01,Rosso di Montalcino,Italy,43.055612,11.3592953,,,,,,,,,,,,,,,
Carchelo (C) 2017,Spain,Jumilla,Carchelo,3.6,111,8.92,2017-01-01,Jumilla,Spain,38.4735408,-1.3285417,17.566666666666666,11.466666666666667,24.400000000000002,17.8,,26.866666666666664,20.76666666666667,34.0,2.1999999999999997,,20.433333333333334,15.233333333333334,27.133333333333336,19.833333333333332,
Reserva Rioja (Finca Ygay) 2016,Spain,Rioja,Marqués de Murrieta,4.0,111,18.0,2016-01-01,Rioja,Spain,42.3285528,-2.4674917,13.566666666666668,7.766666666666666,20.133333333333333,30.33333333333333,,22.53333333333333,15.5,30.666666666666668,58.56666666666667,,14.0,9.0,20.0,26.8,
Barrel Selection Cabernet Sauvignon 2018,Argentina,Uco Valley,Salentein,3.6,111,12.9,2018-01-01,Uco Valley,Argentina,-34.0,-64.0,17.45,,,,,11.366666666666667,5.85,,,,16.633333333333333,10.3,,,
Syrah 2016,South Africa,Stellenbosch,Zevenwacht,4.1,111,13.99,2016-01-01,Stellenbosch,South Africa,-33.934444,18.869167,18.15,15.5,24.15,,,12.566666666666668,7.55,17.8,,,17.1,13.0,24.5,,
Don Antonio Nero d'Avola (Riserva) 2016,Italy,Sicilia,Morgante,4.2,111,25.9,2016-01-01,Sicilia,Italy,37.587794,14.155048,11.300000000000002,4.6,15.35,144.9,,21.833333333333332,,26.633333333333336,24.95,,14.833333333333334,,23.5,97.2,
Wunderwerk Spätburgunder 2014,Germany,Rheinhessen,Dreissigacker,3.8,111,27.0,2014-01-01,Rheinhessen,Germany,49.9045181,8.2711082,,,,,,,,,,,,,,,
Clos d'Ora 2015,France,Minervois La Livinière,Gérard Bertrand,4.5,111,229.0,2015-01-01,Minervois La Livinière,France,43.3124595,2.6385734,,,,,,,,,,,,,,,
Hommage à Jacques Perrin Châteauneuf-du-Pape 2016,France,Châteauneuf-du-Pape,Château de Beaucastel,4.6,111,515.0,2016-01-01,Châteauneuf-du-Pape,France,44.055989,4.8317351,,,,,,,,,,,12.05,7.15,17.25,,
Director's Cut Zinfandel 2015,United States,Dry Creek Valley,Francis Ford Coppola,4.1,1110,32.5,2015-01-01,Dry Creek Valley,United States,39.9545792,-119.9544961,,,,,,,,,,,,,,,
Reserva Ribera del Duero 2014,Spain,Ribera del Duero,Condado de Oriza,3.7,1111,14.52,2014-01-01,Ribera del Duero,Spain,41.6657566,-3.6863295,7.666666666666667,2.6999999999999997,12.566666666666668,69.33333333333333,9720.0,17.866666666666667,10.566666666666666,25.099999999999998,35.666666666666664,18900.0,11.733333333333333,6.866666666666666,16.6,50.666666666666664,9800.0
Amarone della Valpolicella Classico 2015,Italy,Amarone della Valpolicella Classico,Allegrini,4.3,1111,50.69,2015-01-01,Amarone della Valpolicella Classico,Italy,42.83333,12.83333,,,,,,,,,,,,,,,
Châteauneuf-du-Pape 2015,France,Châteauneuf-du-Pape,E. Guigal,4.1,1112,32.54,2015-01-01,Châteauneuf-du-Pape,France,44.055989,4.8317351,,,,,,,,,,,,,,,
Reserve Pinot Noir 2014,Argentina,Uco Valley,Salentein,3.8,1114,15.69,2014-01-01,Uco Valley,Argentina,-34.0,-64.0,15.833333333333334,10.200000000000001,23.8,64.0,13640.0,9.299999999999999,2.5,18.566666666666666,4.0,11800.0,17.266666666666666,10.4,24.8,85.0,14380.0
Malbec 2018,Argentina,Mendoza,Argento,3.6,1117,9.99,2018-01-01,Mendoza,Argentina,-34.787093,-68.4381868,15.233333333333334,,,,,9.066666666666666,1.9,,,,15.766666666666666,,,,
Rioja Reserva 2015,Spain,Rioja,Marqués de Riscal,4.1,11170,15.5,2015-01-01,Rioja,Spain,42.3285528,-2.4674917,13.6,7.2,20.0,34.0,13800.0,21.7,14.633333333333333,28.76666666666667,34.333333333333336,17480.0,16.599999999999998,10.700000000000001,22.53333333333333,46.0,10920.0
Moulis-en-Médoc 2014,France,Moulis-en-Médoc,Château Chasse-Spleen,3.9,1118,43.77,2014-01-01,Moulis-en-Médoc,France,45.0564852,-0.7736381,11.399999999999999,7.233333333333334,16.400000000000002,72.0,9820.0,20.8,15.666666666666666,26.399999999999995,84.0,16120.0,14.5,11.066666666666668,19.03333333333333,99.33333333333333,7620.0
Plumbago Nero d'Avola Sicilia 2016,Italy,Sicilia,Planeta,3.6,1118,13.93,2016-01-01,Sicilia,Italy,37.587794,14.155048,11.300000000000002,4.6,15.35,144.9,,21.833333333333332,,26.633333333333336,24.95,,14.833333333333334,,23.5,97.2,
Vigna Corvino Montepulciano d'Abruzzo 2018,Italy,Montepulciano d'Abruzzo,Contesa,3.8,112,6.32,2018-01-01,Montepulciano d'Abruzzo,Italy,42.1565463,14.6066804,15.733333333333334,16.3,16.4,19.2,,27.633333333333336,24.4,30.5,,,19.566666666666666,,17.0,,
Cabernet Sauvignon 2016,Romania,Samburesti,Castel Bolovanu,3.3,112,7.9,2016-01-01,Samburesti,Romania,44.8063848,24.3993993,,,,,,,,,,,,,,,
Códice 2017,Spain,Castilla y León,Dominio de Eguren,3.5,112,5.75,2017-01-01,Castilla y León,Spain,41.55005,-5.1387401,9.5,2.533333333333333,14.566666666666668,54.300000000000004,,22.333333333333332,11.799999999999999,28.8,3.8333333333333335,,13.600000000000001,6.1000000000000005,19.099999999999998,27.833333333333332,
Pinot Noir 2018,South Africa,Walker Bay,Creation,3.9,112,18.99,2018-01-01,Walker Bay,South Africa,-34.518515,19.2880206,,,,,,,,,,,,,,,
Aigle Les Murailles Rouge 2015,Switzerland,Aigle,Henri Badoux,3.7,112,23.17,2015-01-01,Aigle,Switzerland,46.3179006,6.9688929,,,,,,,,,,,,,,,
Big G 2015,South Africa,Franschhoek,Holden Manz,4.2,112,23.9,2015-01-01,Franschhoek,South Africa,-33.909167,19.119444,17.666666666666668,11.6,26.866666666666664,,,10.399999999999999,4.9,18.299999999999997,,,19.7,13.3,29.3,,
Barbera d'Alba Aves 2018,Italy,Barbera d'Alba,Comm. G.B. Burlotto,4.0,112,24.0,2018-01-01,Barbera d'Alba,Italy,44.7712158,8.0435811,12.200000000000001,9.166666666666666,17.25,41.13333333333333,,21.866666666666664,18.7,25.3,89.8,,12.933333333333332,10.866666666666667,15.733333333333334,17.099999999999998,
Chinon Rouge 2015,France,Chinon,Domaine Gouron,3.5,112,8.75,2015-01-01,Chinon,France,47.1667182,0.2402095,11.466666666666669,6.833333333333333,16.76666666666667,46.0,12140.0,18.599999999999998,13.799999999999999,24.066666666666663,58.666666666666664,13180.0,14.166666666666666,10.200000000000001,19.2,50.333333333333336,9600.0
Bardolino 2016,Italy,Bardolino,Corte Giara,3.5,112,5.9,2016-01-01,Bardolino,Italy,45.5475595,10.7242145,,,,,,,,,,,,,,,
Provident Shiraz 2016,Australia,Barossa Valley,Soul Growers,3.6,112,24.37,2016-01-01,Barossa Valley,Australia,-34.5817132,138.9987872,14.0,8.733333333333334,19.96666666666667,33.333333333333336,,8.766666666666666,4.733333333333333,13.5,43.43333333333334,,15.866666666666665,9.033333333333333,23.433333333333334,18.75,
Perdixi 2013,Italy,Isola dei Nuraghi,Olianas,3.7,112,19.5,2013-01-01,Isola dei Nuraghi,Italy,40.7092886,9.6990329,,,,,,,,,,,,,,,
Puisseguin Saint-Émilion 2013,France,Puisseguin-Saint-Émilion,Château Moulin de Curat,3.4,112,10.75,2013-01-01,Puisseguin-Saint-Émilion,France,44.924616,-0.079579,10.3,6.1,15.0,,,,,,,,13.2,7.6000000000000005,19.3,,
Pissarres 2017,Spain,Priorat,Costers del Priorat,4.0,112,12.85,2017-01-01,Priorat,Spain,41.2137983,0.8116236,15.200000000000001,9.6,21.3,46.833333333333336,,24.600000000000005,18.8,29.4,12.866666666666669,,18.166666666666668,13.766666666666666,23.766666666666666,48.300000000000004,
Arcidiavolo 2008,Italy,Toscana,Teruzzi & Puthod,4.2,112,17.45,2008-01-01,Toscana,Italy,43.4586541,11.1389204,,,,,,,,,,,,,,,
Colheita Alentejano Tinto 2015,Portugal,Alentejano,Monte Cascas,3.6,112,9.65,2015-01-01,Alentejano,Portugal,38.8421261,-7.5871012,,,,,,,,,,,,,,,
Malbec 2013,Argentina,Uco Valley,DiamAndes,3.6,1122,16.56,2013-01-01,Uco Valley,Argentina,-34.0,-64.0,17.133333333333336,12.133333333333333,24.099999999999998,111.0,12440.0,8.966666666666667,2.9333333333333336,17.3,25.5,11200.0,17.466666666666665,12.233333333333334,23.866666666666664,151.33333333333334,13320.0
Bordeaux Rouge 2014,France,Bordeaux,Baron Philippe de Rothschild,3.2,1123,7.95,2014-01-01,Bordeaux,France,44.841225,-0.5800364,11.399999999999999,7.233333333333334,16.400000000000002,72.0,9820.0,20.8,15.666666666666666,26.399999999999995,84.0,16120.0,14.5,11.066666666666668,19.03333333333333,99.33333333333333,7620.0
Pauillac (Grand Cru Classé) 2011,France,Pauillac,Château Pichon Baron,4.4,1125,139.0,2011-01-01,Pauillac,France,45.1995626,-0.7484994,12.5,7.666666666666667,18.033333333333335,45.333333333333336,12600.0,20.566666666666666,15.266666666666667,26.5,44.666666666666664,15300.0,13.533333333333331,9.433333333333334,18.599999999999998,110.66666666666667,10060.0
Pauillac (Grand Cru Classé) 2011,France,Pauillac,Château Grand-Puy-Lacoste,4.2,1125,76.95,2011-01-01,Pauillac,France,45.1995626,-0.7484994,12.5,7.666666666666667,18.033333333333335,45.333333333333336,12600.0,20.566666666666666,15.266666666666667,26.5,44.666666666666664,15300.0,13.533333333333331,9.433333333333334,18.599999999999998,110.66666666666667,10060.0
Selvarossa Riserva 2014,Italy,Salice Salentino,Cantine due Palme,4.0,1125,14.95,2014-01-01,Salice Salentino,Italy,40.3856618,17.9637483,,,,,,,,,,,,,,,
Rocca Guicciarda Chianti Classico Riserva 2016,Italy,Chianti Classico,Ricasoli,3.7,1129,13.79,2016-01-01,Chianti Classico,Italy,43.3930219,11.3088538,,,,,,,,,,,,,,,
Diamond Collection Malbec (Celestial Blue Label) 2017,United States,Napa Valley,Francis Ford Coppola,3.6,113,26.31,2017-01-01,Napa Valley,United States,38.8484702,-94.413093,,,,,,,,,,,,,,,
Rioja Tempranillo Elaboración Especial 2017,Spain,Rioja,Beronia,3.7,113,11.99,2017-01-01,Rioja,Spain,42.3285528,-2.4674917,11.766666666666666,6.333333333333333,17.866666666666667,30.8,,22.0,15.1,30.133333333333336,13.1,,14.666666666666666,9.233333333333334,21.366666666666664,32.0,
Pomerol 2015,France,Pomerol,Château Moulinet-Lasserre,4.1,113,46.79,2015-01-01,Pomerol,France,44.9311234,-0.1999904,13.066666666666668,8.433333333333334,18.400000000000002,80.66666666666667,11840.0,20.3,15.6,25.700000000000003,66.0,14940.0,16.5,12.299999999999999,22.03333333333333,64.33333333333333,10860.0
1300 Merlot 2016,Argentina,Tupungato,Andeluna,3.3,113,7.7,2016-01-01,Tupungato,Argentina,-33.3723648,-69.1479533,,,,,,,,,,,,,,,
Tradition Spätburgunder 2017,Germany,Franken,Rudolf Fürst,3.8,113,16.9,2017-01-01,Franken,Germany,50.5011427,7.2341043,,,,,,,,,,,,,,,
Nebbiolo Langhe 2018,Italy,Langhe,Giacomo Fenocchio,3.7,113,16.9,2018-01-01,Langhe,Italy,44.493036,7.974639,,,,,,,,,,,,,,,
Pinot Noir 2016,United States,California,Spellbound,3.6,113,14.49,2016-01-01,California,United States,36.7014631,-118.755997,,,,,,,,,,,,,,,
Tenuta Belguardo 2015,Italy,Maremma Toscana,Mazzei,3.8,113,49.0,2015-01-01,Maremma Toscana,Italy,42.7027722,11.1367433,14.066666666666668,8.200000000000001,20.133333333333336,45.666666666666664,,23.400000000000002,17.03333333333333,29.233333333333334,271.0,,18.233333333333334,13.933333333333332,23.399999999999995,152.0,
Kalkmergel Spätburgunder 2014,Germany,Pfalz,Knipser,3.8,113,23.38,2014-01-01,Pfalz,Germany,53.8156324,13.3702287,,,,,,,,,,,,,,,
Merlot 2015,Italy,Südtirol - Alto Adige,Alois Lageder,3.7,113,17.79,2015-01-01,Südtirol - Alto Adige,Italy,46.441472,11.282121,,,,,,,,,,,,,,,
Châteauneuf-du-Pape 2017,France,Châteauneuf-du-Pape,Clos des Papes (Paul Avril),4.2,113,86.76,2017-01-01,Châteauneuf-du-Pape,France,44.055989,4.8317351,14.65,9.1,20.299999999999997,,,24.05,16.95,30.799999999999997,,,15.133333333333335,9.6,20.666666666666664,,
Chianti Classico 2016,Italy,Chianti Classico,Monte Guelfo,3.4,113,8.29,2016-01-01,Chianti Classico,Italy,43.3930219,11.3088538,,,,,,,,,,,,,,,
Valdehermoso Crianza 2016,Spain,Ribera del Duero,Valderiz,3.7,113,13.5,2016-01-01,Ribera del Duero,Spain,41.6657566,-3.6863295,11.533333333333333,3.9333333333333336,16.366666666666667,21.766666666666666,,21.53333333333333,11.733333333333334,27.900000000000002,37.93333333333333,,12.200000000000001,5.7,16.900000000000002,34.56666666666667,
Bel Noce Primitivo 2017,Italy,Salento,Cantina Rosa del Golfo,4.2,113,9.78,2017-01-01,Salento,Italy,40.248604,15.190058,15.266666666666666,,20.8,,,24.099999999999998,,29.6,,,19.0,,26.8,,
Moulin des Costes Bandol Rouge 2011,France,Bandol,Domaines Bunan,3.7,113,115.0,2011-01-01,Bandol,France,43.1357717,5.7523647,,,,,,,,,,,,,,,
Sapaio Bolgheri Superiore 2016,Italy,Bolgheri Superiore,Podere Sapaio,4.2,113,54.81,2016-01-01,Bolgheri Superiore,Italy,44.46006,7.10425,11.299999999999999,2.1,16.6,22.1,,19.9,13.8,27.4,78.1,,10.6,6.949999999999999,18.950000000000003,60.5,
Rosso di Montalcino 2015,Italy,Rosso di Montalcino,Poggio Landi,3.7,113,13.5,2015-01-01,Rosso di Montalcino,Italy,43.055612,11.3592953,,,,,,,,,,,,,,,
Côtes du Rhône 2016,France,Côtes-du-Rhône,Rocca Maura,3.4,113,7.5,2016-01-01,Côtes-du-Rhône,France,44.7667285,4.8528701,,,,,,,,,,,,,,,
Filo di Seta Brunello di Montalcino 2012,Italy,Brunello di Montalcino,Castello Romitorio,4.3,113,52.87,2012-01-01,Brunello di Montalcino,Italy,43.3204995,11.3281859,,,,,,,,,,,,,,,
Saint-Émilion Grand Cru 2011,France,Saint-Émilion Grand Cru,Clos Dubreuil,4.1,113,63.2,2011-01-01,Saint-Émilion Grand Cru,France,44.847147,-0.547337,12.5,7.666666666666667,18.033333333333335,45.333333333333336,12600.0,20.566666666666666,15.266666666666667,26.5,44.666666666666664,15300.0,13.533333333333331,9.433333333333334,18.599999999999998,110.66666666666667,10060.0
